$GNRMC,141504.00,A,4533.04027,N,07336.12353,W,0.004,,140323,,,A,V*07
$GNVTG,,T,,M,0.004,N,0.007,K,A*3E
$GNGGA,141504.00,4533.04027,N,07336.12353,W,1,12,0.49,62.9,M,-32.6,M,,*4B
$GNGSA,A,3,28,27,26,18,31,04,07,09,02,16,,,0.86,0.49,0.70,1*0A
$GNGSA,A,3,66,76,84,86,75,77,85,67,,,,,0.86,0.49,0.70,2*0B
$GNGSA,A,3,05,33,12,31,25,24,03,,,,,,0.86,0.49,0.70,3*01
$GNGSA,A,3,26,14,08,33,29,24,21,,,,,,0.86,0.49,0.70,4*07
$GPGSV,4,1,14,02,05,032,42,03,04,225,,04,64,252,43,07,15,293,43,1*6E
$GPGSV,4,2,14,08,20,185,,09,41,302,46,16,85,025,46,18,07,071,37,1*6D
$GPGSV,4,3,14,26,45,060,47,27,44,157,37,28,06,109,40,31,18,105,42,1*6D
$GPGSV,4,4,14,46,15,244,,48,18,240,,1*66
$GPGSV,4,1,14,02,05,032,,03,04,225,,04,64,252,38,07,15,293,29,6*6F
$GPGSV,4,2,14,08,20,185,,09,41,302,38,16,85,025,,18,07,071,41,6*60
$GPGSV,4,3,14,26,45,060,45,27,44,157,27,28,06,109,36,31,18,105,39,6*64
$GPGSV,4,4,14,46,15,244,,48,18,240,,6*61
$GLGSV,3,1,10,65,16,195,,66,50,251,39,67,31,321,46,75,34,060,44,1*79
$GLGSV,3,2,10,76,64,326,49,77,25,275,32,84,13,019,35,85,31,080,40,1*74
$GLGSV,3,3,10,86,16,127,39,1*4E
$GLGSV,3,1,10,65,16,195,,66,50,251,31,67,31,321,35,75,34,060,42,3*71
$GLGSV,3,2,10,76,64,326,39,77,25,275,25,84,13,019,26,85,31,080,41,3*74
$GLGSV,3,3,10,86,16,127,35,3*40
$GAGSV,3,1,11,03,39,304,45,05,59,217,35,09,19,168,23,10,00,131,,7*78
$GAGSV,3,2,11,12,07,110,36,14,42,083,42,24,77,036,46,25,43,250,34,7*7C
$GAGSV,3,3,11,26,03,016,29,31,27,060,44,33,13,060,43,7*4A
$GAGSV,3,1,11,03,39,304,39,05,59,217,38,09,19,168,,10,00,131,,2*7A
$GAGSV,3,2,11,12,07,110,34,14,42,083,48,24,77,036,46,25,43,250,36,2*73
$GAGSV,3,3,11,26,03,016,30,31,27,060,36,33,13,060,45,2*44
$GBGSV,3,1,10,08,07,004,30,13,03,014,31,14,32,290,45,21,18,205,26,1*7C
$GBGSV,3,2,10,24,21,275,43,26,67,300,49,29,34,084,47,30,10,033,,1*7E
$GBGSV,3,3,10,33,19,316,44,36,00,087,,1*71
$GBGSV,3,1,10,08,07,004,36,13,03,014,25,14,32,290,45,21,18,205,,3*79
$GBGSV,3,2,10,24,21,275,,26,67,300,,29,34,084,,30,10,033,,3*75
$GBGSV,3,3,10,33,19,316,,36,00,087,,3*73
$GNGLL,4533.04027,N,07336.12353,W,141504.00,A,A*67
$GNRMC,141505.00,A,4533.04027,N,07336.12353,W,0.004,,140323,,,A,V*06
$GNVTG,,T,,M,0.004,N,0.007,K,A*3E
$GNGGA,141505.00,4533.04027,N,07336.12353,W,1,12,0.49,62.9,M,-32.6,M,,*4A
$GNGSA,A,3,28,27,26,18,31,04,07,09,02,16,,,0.86,0.49,0.70,1*0A
$GNGSA,A,3,66,76,84,86,75,77,85,67,,,,,0.86,0.49,0.70,2*0B
$GNGSA,A,3,05,33,12,31,25,24,03,,,,,,0.86,0.49,0.70,3*01
$GNGSA,A,3,26,14,08,33,29,24,21,,,,,,0.86,0.49,0.70,4*07
$GPGSV,4,1,14,02,05,032,42,03,04,225,,04,64,252,43,07,15,293,43,1*6E
$GPGSV,4,2,14,08,20,185,,09,41,302,46,16,85,025,46,18,07,071,36,1*6C
$GPGSV,4,3,14,26,45,060,47,27,44,157,37,28,06,109,40,31,18,105,42,1*6D
$GPGSV,4,4,14,46,15,244,,48,18,240,,1*66
$GPGSV,4,1,14,02,05,032,,03,04,225,,04,64,252,38,07,15,293,29,6*6F
$GPGSV,4,2,14,08,20,185,,09,41,302,38,16,85,025,,18,07,071,41,6*60
$GPGSV,4,3,14,26,45,060,45,27,44,157,27,28,06,109,36,31,18,105,39,6*64
$GPGSV,4,4,14,46,15,244,,48,18,240,,6*61
$GLGSV,3,1,10,65,16,195,,66,50,251,39,67,31,321,46,75,34,060,44,1*79
$GLGSV,3,2,10,76,64,326,49,77,25,275,32,84,13,019,35,85,31,080,40,1*74
$GLGSV,3,3,10,86,16,127,39,1*4E
$GLGSV,3,1,10,65,16,195,,66,50,251,30,67,31,321,35,75,34,060,41,3*73
$GLGSV,3,2,10,76,64,326,39,77,25,275,25,84,13,019,26,85,31,080,41,3*74
$GLGSV,3,3,10,86,16,127,35,3*40
$GAGSV,3,1,11,03,39,304,46,05,59,217,35,09,19,168,22,10,00,131,,7*7A
$GAGSV,3,2,11,12,07,110,36,14,42,083,43,24,77,036,46,25,43,250,34,7*7D
$GAGSV,3,3,11,26,03,016,29,31,27,060,43,33,13,060,43,7*4D
$GAGSV,3,1,11,03,39,304,38,05,59,217,38,09,19,168,,10,00,131,,2*7B
$GAGSV,3,2,11,12,07,110,34,14,42,083,48,24,77,036,46,25,43,250,36,2*73
$GAGSV,3,3,11,26,03,016,30,31,27,060,36,33,13,060,45,2*44
$GBGSV,3,1,10,08,07,004,30,13,03,014,31,14,32,290,45,21,18,205,27,1*7D
$GBGSV,3,2,10,24,21,275,43,26,67,300,49,29,34,084,47,30,10,033,,1*7E
$GBGSV,3,3,10,33,19,316,45,36,00,087,,1*70
$GBGSV,3,1,10,08,07,004,37,13,03,014,25,14,32,290,45,21,18,205,,3*78
$GBGSV,3,2,10,24,21,275,,26,67,300,,29,34,084,,30,10,033,,3*75
$GBGSV,3,3,10,33,19,316,,36,00,087,,3*73
$GNGLL,4533.04027,N,07336.12353,W,141505.00,A,A*66
$GNRMC,141506.00,A,4533.04027,N,07336.12352,W,0.004,,140323,,,A,V*04
$GNVTG,,T,,M,0.004,N,0.007,K,A*3E
$GNGGA,141506.00,4533.04027,N,07336.12352,W,1,12,0.49,62.9,M,-32.6,M,,*48
$GNGSA,A,3,28,27,26,18,31,04,07,09,02,16,,,0.86,0.49,0.70,1*0A
$GNGSA,A,3,66,76,84,86,75,77,85,67,,,,,0.86,0.49,0.70,2*0B
$GNGSA,A,3,05,33,12,31,25,24,03,,,,,,0.86,0.49,0.70,3*01
$GNGSA,A,3,26,14,08,33,29,24,21,,,,,,0.86,0.49,0.70,4*07
$GPGSV,4,1,14,02,05,032,42,03,04,225,,04,64,252,44,07,15,293,43,1*69
$GPGSV,4,2,14,08,20,185,,09,41,302,46,16,85,025,46,18,07,071,36,1*6C
$GPGSV,4,3,14,26,45,060,47,27,44,157,36,28,06,109,40,31,18,105,42,1*6C
$GPGSV,4,4,14,46,15,244,,48,18,240,,1*66
$GPGSV,4,1,14,02,05,032,,03,04,225,,04,64,252,38,07,15,293,29,6*6F
$GPGSV,4,2,14,08,20,185,,09,41,302,38,16,85,025,,18,07,071,41,6*60
$GPGSV,4,3,14,26,45,060,45,27,44,157,27,28,06,109,35,31,18,105,39,6*67
$GPGSV,4,4,14,46,15,244,,48,18,240,,6*61
$GLGSV,3,1,10,65,16,195,,66,50,251,39,67,31,321,46,75,34,060,44,1*79
$GLGSV,3,2,10,76,64,326,49,77,25,275,32,84,13,019,35,85,31,080,39,1*7A
$GLGSV,3,3,10,86,16,127,39,1*4E
$GLGSV,3,1,10,65,16,195,,66,50,251,30,67,31,321,35,75,34,060,42,3*70
$GLGSV,3,2,10,76,64,326,39,77,25,275,25,84,13,019,25,85,31,080,41,3*77
$GLGSV,3,3,10,86,16,127,35,3*40
$GAGSV,3,1,11,03,39,304,46,05,59,217,35,09,19,168,22,10,00,131,,7*7A
$GAGSV,3,2,11,12,07,110,36,14,42,083,43,24,77,036,46,25,43,250,35,7*7C
$GAGSV,3,3,11,26,03,016,30,31,27,060,43,33,13,060,43,7*45
$GAGSV,3,1,11,03,39,304,39,05,59,217,38,09,19,168,,10,00,131,,2*7A
$GAGSV,3,2,11,12,07,110,34,14,42,083,48,24,77,036,46,25,43,250,36,2*73
$GAGSV,3,3,11,26,03,016,31,31,27,060,36,33,13,060,45,2*45
$GBGSV,3,1,10,08,07,004,30,13,03,014,31,14,32,290,45,21,18,205,27,1*7D
$GBGSV,3,2,10,24,21,275,43,26,67,300,48,29,34,084,47,30,10,033,,1*7F
$GBGSV,3,3,10,33,19,316,45,36,00,087,,1*70
$GBGSV,3,1,10,08,07,004,36,13,03,014,25,14,32,290,45,21,18,205,,3*79
$GBGSV,3,2,10,24,21,275,,26,67,300,,29,34,084,,30,10,033,,3*75
$GBGSV,3,3,10,33,19,316,,36,00,087,,3*73
$GNGLL,4533.04027,N,07336.12352,W,141506.00,A,A*64
$GNRMC,141507.00,A,4533.04027,N,07336.12352,W,0.004,,140323,,,A,V*05
$GNVTG,,T,,M,0.004,N,0.007,K,A*3E
$GNGGA,141507.00,4533.04027,N,07336.12352,W,1,12,0.49,62.9,M,-32.6,M,,*49
$GNGSA,A,3,28,27,26,18,31,04,07,09,02,16,,,0.86,0.49,0.70,1*0A
$GNGSA,A,3,66,76,84,86,75,77,85,67,,,,,0.86,0.49,0.70,2*0B
$GNGSA,A,3,05,33,12,31,25,24,03,,,,,,0.86,0.49,0.70,3*01
$GNGSA,A,3,26,14,08,33,29,24,21,,,,,,0.86,0.49,0.70,4*07
$GPGSV,4,1,14,02,05,032,42,03,04,225,,04,64,252,44,07,15,293,43,1*69
$GPGSV,4,2,14,08,20,185,,09,41,302,47,16,85,025,46,18,07,071,36,1*6D
$GPGSV,4,3,14,26,45,060,46,27,44,157,36,28,06,109,40,31,18,105,42,1*6D
$GPGSV,4,4,14,46,15,244,,48,18,240,,1*66
$GPGSV,4,1,14,02,05,032,,03,04,225,,04,64,252,38,07,15,293,29,6*6F
$GPGSV,4,2,14,08,20,185,,09,41,302,38,16,85,025,,18,07,071,41,6*60
$GPGSV,4,3,14,26,45,060,45,27,44,157,26,28,06,109,35,31,18,105,39,6*66
$GPGSV,4,4,14,46,15,244,,48,18,240,,6*61
$GLGSV,3,1,10,65,16,195,,66,50,251,39,67,31,321,46,75,34,060,44,1*79
$GLGSV,3,2,10,76,64,326,49,77,25,275,32,84,13,019,35,85,31,080,39,1*7A
$GLGSV,3,3,10,86,16,127,39,1*4E
$GLGSV,3,1,10,65,16,195,,66,50,251,30,67,31,321,34,75,34,060,42,3*71
$GLGSV,3,2,10,76,64,326,39,77,25,275,26,84,13,019,26,85,31,080,41,3*77
$GLGSV,3,3,10,86,16,127,34,3*41
$GAGSV,3,1,11,03,39,304,46,05,59,217,34,09,19,168,23,10,00,131,,7*7A
$GAGSV,3,2,11,12,07,110,36,14,42,083,43,24,77,036,46,25,43,250,35,7*7C
$GAGSV,3,3,11,26,03,016,29,31,27,060,43,33,13,060,43,7*4D
$GAGSV,3,1,11,03,39,304,38,05,59,217,38,09,19,168,,10,00,131,,2*7B
$GAGSV,3,2,11,12,07,110,34,14,42,083,48,24,77,036,46,25,43,250,36,2*73
$GAGSV,3,3,11,26,03,016,31,31,27,060,37,33,13,060,45,2*44
$GBGSV,3,1,10,08,07,004,30,13,03,014,31,14,32,290,45,21,18,205,27,1*7D
$GBGSV,3,2,10,24,21,275,43,26,67,300,48,29,35,083,47,30,10,033,,1*79
$GBGSV,3,3,10,33,19,316,45,36,00,087,,1*70
$GBGSV,3,1,10,08,07,004,37,13,03,014,24,14,32,290,45,21,18,205,,3*79
$GBGSV,3,2,10,24,21,275,,26,67,300,,29,35,083,,30,10,033,,3*73
$GBGSV,3,3,10,33,19,316,,36,00,087,,3*73
$GNGLL,4533.04027,N,07336.12352,W,141507.00,A,A*65
$GNRMC,141508.00,A,4533.04026,N,07336.12352,W,0.004,,140323,,,A,V*0B
$GNVTG,,T,,M,0.004,N,0.007,K,A*3E
$GNGGA,141508.00,4533.04026,N,07336.12352,W,1,12,0.49,63.0,M,-32.6,M,,*4F
$GNGSA,A,3,28,27,26,18,31,04,07,09,02,16,,,0.86,0.49,0.70,1*0A
$GNGSA,A,3,66,76,84,86,75,77,85,67,,,,,0.86,0.49,0.70,2*0B
$GNGSA,A,3,05,33,12,31,25,24,03,,,,,,0.86,0.49,0.70,3*01
$GNGSA,A,3,26,14,08,33,29,24,21,,,,,,0.86,0.49,0.70,4*07
$GPGSV,4,1,14,02,05,032,42,03,04,225,,04,64,252,44,07,15,293,43,1*69
$GPGSV,4,2,14,08,20,185,,09,41,302,47,16,85,025,46,18,07,071,36,1*6D
$GPGSV,4,3,14,26,45,060,47,27,44,157,37,28,06,109,40,31,18,105,42,1*6D
$GPGSV,4,4,14,46,15,244,,48,18,240,,1*66
$GPGSV,4,1,14,02,05,032,,03,04,225,,04,64,252,38,07,15,293,29,6*6F
$GPGSV,4,2,14,08,20,185,,09,41,302,38,16,85,025,,18,07,071,41,6*60
$GPGSV,4,3,14,26,45,060,45,27,44,157,26,28,06,109,35,31,18,105,39,6*66
$GPGSV,4,4,14,46,15,244,,48,18,240,,6*61
$GLGSV,3,1,10,65,16,195,,66,50,251,39,67,31,321,46,75,34,060,44,1*79
$GLGSV,3,2,10,76,64,326,49,77,25,275,32,84,13,019,35,85,31,080,40,1*74
$GLGSV,3,3,10,86,16,127,40,1*40
$GLGSV,3,1,10,65,16,195,,66,50,251,29,67,31,321,35,75,34,060,42,3*78
$GLGSV,3,2,10,76,64,326,39,77,25,275,26,84,13,019,26,85,31,080,42,3*74
$GLGSV,3,3,10,86,16,127,34,3*41
$GAGSV,3,1,11,03,39,304,46,05,59,217,34,09,19,168,24,10,00,131,,7*7D
$GAGSV,3,2,11,12,07,110,36,14,42,083,43,24,77,036,46,25,43,250,35,7*7C
$GAGSV,3,3,11,26,03,016,30,31,27,060,43,33,13,060,43,7*45
$GAGSV,3,1,11,03,39,304,39,05,59,217,38,09,19,168,,10,00,131,,2*7A
$GAGSV,3,2,11,12,07,110,34,14,42,083,48,24,77,036,46,25,43,250,36,2*73
$GAGSV,3,3,11,26,03,016,31,31,27,060,37,33,13,060,45,2*44
$GBGSV,3,1,10,08,07,004,30,13,03,014,31,14,32,290,45,21,18,205,26,1*7C
$GBGSV,3,2,10,24,21,275,43,26,67,300,48,29,35,083,47,30,10,033,,1*79
$GBGSV,3,3,10,33,19,316,44,36,00,087,,1*71
$GBGSV,3,1,10,08,07,004,37,13,03,014,25,14,32,290,45,21,18,205,,3*78
$GBGSV,3,2,10,24,21,275,,26,67,300,,29,35,083,,30,10,033,,3*73
$GBGSV,3,3,10,33,19,316,,36,00,087,,3*73
$GNGLL,4533.04026,N,07336.12352,W,141508.00,A,A*6B
µb
  4µb
‹ EXT CORE 1.00 (71b20c)        00190000  ROM BASE 0x118B2060           FWVER=TIM 2.01                PROTVER=29.00                 MOD=ZED-F9T                   GPS;GLO;GAL;BDS               SBAS;QZSS                     ˚ µbã       ˇßû$GNRMC,141509.00,A,4533.04026,N,07336.12352,W,0.004,,140323,,,A,V*0A
$GNVTG,,T,,M,0.004,N,0.007,K,A*3E
$GNGGA,141509.00,4533.04026,N,07336.12352,W,1,12,0.49,63.0,M,-32.6,M,,*4E
$GNGSA,A,3,28,27,26,18,31,04,07,09,02,16,,,0.86,0.49,0.70,1*0A
$GNGSA,A,3,66,76,84,86,75,77,85,67,,,,,0.86,0.49,0.70,2*0B
$GNGSA,A,3,05,33,12,31,25,24,03,,,,,,0.86,0.49,0.70,3*01
$GNGSA,A,3,26,14,08,33,29,24,21,,,,,,0.86,0.49,0.70,4*07
$GPGSV,4,1,14,02,05,032,42,03,04,225,,04,64,252,44,07,15,293,43,1*69
$GPGSV,4,2,14,08,20,185,,09,41,302,47,16,85,025,46,18,07,071,36,1*6D
$GPGSV,4,3,14,26,45,060,47,27,44,157,37,28,06,109,40,31,18,105,42,1*6D
$GPGSV,4,4,14,46,15,244,,48,18,240,,1*66
$GPGSV,4,1,14,02,05,032,,03,04,225,,04,64,252,38,07,15,293,29,6*6F
$GPGSV,4,2,14,08,20,185,,09,41,302,38,16,85,025,,18,07,071,41,6*60
$GPGSV,4,3,14,26,45,060,45,27,44,157,26,28,06,109,35,31,18,105,39,6*66
$GPGSV,4,4,14,46,15,244,,48,18,240,,6*61
$GLGSV,3,1,10,65,16,195,,66,50,251,39,67,31,321,46,75,34,060,44,1*79
$GLGSV,3,2,10,76,64,326,49,77,25,275,32,84,13,019,35,85,31,080,40,1*74
$GLGSV,3,3,10,86,16,127,40,89,,,44,1*41
$GLGSV,3,1,10,65,16,195,,66,50,251,29,67,31,321,34,75,34,060,42,3*79
$GLGSV,3,2,10,76,64,326,39,77,25,275,26,84,13,019,26,85,31,080,42,3*74
$GLGSV,3,3,10,86,16,127,35,89,,,39,3*4B
$GAGSV,3,1,11,03,39,304,46,05,59,217,34,09,19,168,23,10,00,131,,7*7A
$GAGSV,3,2,11,12,07,110,36,14,42,083,43,24,77,036,46,25,43,250,35,7*7C
$GAGSV,3,3,11,26,03,016,30,31,27,060,43,33,13,060,43,7*45
$GAGSV,3,1,11,03,39,304,39,05,59,217,38,09,19,168,,10,00,131,,2*7A
$GAGSV,3,2,11,12,07,110,34,14,42,083,48,24,77,036,46,25,43,250,36,2*73
$GAGSV,3,3,11,26,03,016,31,31,27,060,37,33,13,060,45,2*44
$GBGSV,3,1,10,08,07,004,29,13,03,014,31,14,32,290,45,21,18,205,26,1*74
$GBGSV,3,2,10,24,21,275,43,26,67,300,48,29,35,083,47,30,10,033,,1*79
$GBGSV,3,3,10,33,19,316,44,36,00,087,,1*71
$GBGSV,3,1,10,08,07,004,37,13,03,014,25,14,32,290,45,21,18,205,,3*78
$GBGSV,3,2,10,24,21,275,,26,67,300,,29,35,083,,30,10,033,,3*73
$GBGSV,3,3,10,33,19,316,,36,00,087,,3*73
$GNGLL,4533.04026,N,07336.12352,W,141509.00,A,A*6A
µbãD                  	 
        1  2  3 4            %  F R  S  a  Å  Ç  É  R   "  "  "  "  $   $ 0 $ @ $ P $  %  1 1 1 1
 1 1 1 1  1  1  1 1 1  1! 1=Iµbã   @   ˇÁµb
  4µb ãô¬$GNRMC,141510.00,A,4533.04026,N,07336.12352,W,0.003,,140323,,,A,V*05
$GNVTG,,T,,M,0.003,N,0.006,K,A*38
$GNGGA,141510.00,4533.04026,N,07336.12352,W,1,12,0.49,63.0,M,-32.6,M,,*46
$GNGSA,A,3,28,27,26,18,31,04,07,09,02,16,,,0.86,0.49,0.70,1*0A
$GNGSA,A,3,66,76,84,86,75,77,85,67,,,,,0.86,0.49,0.70,2*0B
$GNGSA,A,3,05,33,12,31,25,24,03,,,,,,0.86,0.49,0.70,3*01
$GNGSA,A,3,26,14,08,33,29,24,21,,,,,,0.86,0.49,0.70,4*07
$GPGSV,4,1,14,02,05,032,42,03,04,225,,04,64,252,43,07,15,293,43,1*6E
$GPGSV,4,2,14,08,20,185,,09,41,302,47,16,85,025,46,18,07,071,37,1*6C
$GPGSV,4,3,14,26,45,060,47,27,44,157,37,28,06,109,40,31,18,105,42,1*6D
$GPGSV,4,4,14,46,15,244,,48,18,240,,1*66
$GPGSV,4,1,14,02,05,032,,03,04,225,,04,64,252,38,07,15,293,29,6*6F
$GPGSV,4,2,14,08,20,185,,09,41,302,38,16,85,025,,18,07,071,41,6*60
$GPGSV,4,3,14,26,45,060,45,27,44,157,26,28,06,109,35,31,18,105,39,6*66
$GPGSV,4,4,14,46,15,244,,48,18,240,,6*61
$GLGSV,3,1,10,65,16,195,,66,50,251,39,67,31,321,46,75,34,060,44,1*79
$GLGSV,3,2,10,76,64,326,49,77,25,275,32,84,13,019,35,85,31,080,40,1*74
$GLGSV,3,3,10,86,16,127,40,1*40
$GLGSV,3,1,09,65,16,195,,66,50,251,28,67,31,321,34,75,34,060,42,3*70
$GLGSV,3,2,09,76,64,326,39,77,25,275,26,84,13,019,26,85,31,080,41,3*7F
$GLGSV,3,3,09,86,16,127,35,3*48
$GAGSV,3,1,11,03,39,304,46,05,59,217,34,09,19,168,23,10,00,131,,7*7A
$GAGSV,3,2,11,12,07,110,36,14,42,083,43,24,77,036,46,25,43,250,35,7*7C
$GAGSV,3,3,11,26,03,016,29,31,27,060,43,33,13,060,43,7*4D
$GAGSV,3,1,11,03,39,304,39,05,59,217,38,09,19,168,,10,00,131,,2*7A
$GAGSV,3,2,11,12,07,110,34,14,42,083,48,24,77,036,46,25,43,250,36,2*73
$GAGSV,3,3,11,26,03,016,31,31,27,060,37,33,13,060,45,2*44
$GBGSV,3,1,09,08,07,004,30,13,03,014,31,14,32,290,45,21,18,205,27,1*75
$GBGSV,3,2,09,24,21,275,43,26,67,300,48,29,35,083,47,30,10,033,,1*71
$GBGSV,3,3,09,33,19,316,44,1*43
$GBGSV,3,1,09,08,07,004,37,13,03,014,26,14,32,290,45,21,18,205,,3*73
$GBGSV,3,2,09,24,21,275,,26,67,300,,29,35,083,,30,10,033,,3*7B
$GBGSV,3,3,09,33,19,316,,3*41
$GNGLL,4533.04026,N,07336.12352,W,141510.00,A,A*62
$GNRMC,141511.00,A,4533.04026,N,07336.12352,W,0.003,,140323,,,A,V*04
$GNVTG,,T,,M,0.003,N,0.006,K,A*38
$GNGGA,141511.00,4533.04026,N,07336.12352,W,1,12,0.49,63.0,M,-32.6,M,,*47
$GNGSA,A,3,28,27,26,18,31,04,07,09,02,16,,,0.86,0.49,0.70,1*0A
$GNGSA,A,3,66,76,84,86,75,77,85,67,,,,,0.86,0.49,0.70,2*0B
$GNGSA,A,3,05,33,12,31,25,24,03,,,,,,0.86,0.49,0.70,3*01
$GNGSA,A,3,26,14,08,33,29,24,21,,,,,,0.86,0.49,0.70,4*07
$GPGSV,4,1,14,02,05,032,42,03,04,225,,04,64,252,43,07,15,293,43,1*6E
$GPGSV,4,2,14,08,20,185,,09,41,302,47,16,85,025,46,18,07,071,37,1*6C
$GPGSV,4,3,14,26,45,060,46,27,44,157,37,28,06,109,40,31,18,105,42,1*6C
$GPGSV,4,4,14,46,15,244,,48,18,240,,1*66
$GPGSV,4,1,14,02,05,032,,03,04,225,,04,64,252,38,07,15,293,29,6*6F
$GPGSV,4,2,14,08,20,185,,09,41,302,38,16,85,025,,18,07,071,41,6*60
$GPGSV,4,3,14,26,45,060,45,27,44,157,26,28,06,109,35,31,18,105,39,6*66
$GPGSV,4,4,14,46,15,244,,48,18,240,,6*61
$GLGSV,3,1,10,65,15,195,,66,50,251,39,67,31,321,46,75,34,060,44,1*7A
$GLGSV,3,2,10,76,64,326,49,77,25,275,32,84,13,019,35,85,31,080,40,1*74
$GLGSV,3,3,10,86,16,127,40,1*40
$GLGSV,3,1,09,65,15,195,,66,50,251,29,67,31,321,34,75,34,060,42,3*72
$GLGSV,3,2,09,76,64,326,39,77,25,275,26,84,13,019,26,85,31,080,41,3*7F
$GLGSV,3,3,09,86,16,127,35,3*48
$GAGSV,3,1,11,03,39,304,46,05,59,217,34,09,19,168,22,10,00,131,,7*7B
$GAGSV,3,2,11,12,07,110,36,14,42,083,43,24,77,036,46,25,43,250,35,7*7C
$GAGSV,3,3,11,26,03,016,29,31,27,060,43,33,13,060,43,7*4D
$GAGSV,3,1,11,03,39,304,39,05,59,217,38,09,19,168,,10,00,131,,2*7A
$GAGSV,3,2,11,12,07,110,34,14,42,083,48,24,77,036,46,25,43,250,36,2*73
$GAGSV,3,3,11,26,03,016,31,31,27,060,37,33,13,060,45,2*44
$GBGSV,3,1,09,08,07,004,29,13,03,014,31,14,32,290,45,21,18,205,27,1*7D
$GBGSV,3,2,09,24,21,275,43,26,67,300,48,29,35,083,47,30,10,033,,1*71
$GBGSV,3,3,09,33,19,316,44,1*43
$GBGSV,3,1,09,08,07,004,37,13,03,014,26,14,32,290,45,21,18,205,,3*73
$GBGSV,3,2,09,24,21,275,,26,67,300,,29,35,083,,30,10,033,,3*7B
$GBGSV,3,3,09,33,19,316,,3*41
$GNGLL,4533.04026,N,07336.12352,W,141511.00,A,A*63
$GNRMC,141512.00,A,4533.04026,N,07336.12353,W,0.003,,140323,,,A,V*06
$GNVTG,,T,,M,0.003,N,0.006,K,A*38
$GNGGA,141512.00,4533.04026,N,07336.12353,W,1,12,0.49,63.0,M,-32.6,M,,*45
$GNGSA,A,3,28,27,26,18,31,04,07,09,02,16,,,0.86,0.49,0.70,1*0A
$GNGSA,A,3,66,76,84,86,75,77,85,67,,,,,0.86,0.49,0.70,2*0B
$GNGSA,A,3,05,33,12,31,25,24,03,,,,,,0.86,0.49,0.70,3*01
$GNGSA,A,3,26,14,08,33,29,24,21,,,,,,0.86,0.49,0.70,4*07
$GPGSV,4,1,14,02,05,032,42,03,04,225,,04,64,252,43,07,15,293,43,1*6E
$GPGSV,4,2,14,08,20,185,,09,41,302,46,16,85,025,47,18,07,071,37,1*6C
$GPGSV,4,3,14,26,45,060,46,27,44,157,37,28,06,109,40,31,18,105,42,1*6C
$GPGSV,4,4,14,46,15,244,,48,18,240,,1*66
$GPGSV,4,1,14,02,05,032,,03,04,225,,04,64,252,38,07,15,293,28,6*6E
$GPGSV,4,2,14,08,20,185,,09,41,302,38,16,85,025,,18,07,071,41,6*60
$GPGSV,4,3,14,26,45,060,45,27,44,157,25,28,06,109,35,31,18,105,39,6*65
$GPGSV,4,4,14,46,15,244,,48,18,240,,6*61
$GLGSV,3,1,10,65,15,195,,66,50,249,38,67,31,321,46,75,34,060,44,1*72
$GLGSV,3,2,10,76,64,326,49,77,25,275,32,84,13,019,35,85,31,080,40,1*74
$GLGSV,3,3,10,86,16,127,40,1*40
$GLGSV,3,1,10,65,15,195,,66,50,249,29,67,31,321,34,75,34,060,42,3*73
$GLGSV,3,2,10,76,64,326,39,77,25,275,26,84,13,019,26,85,31,080,42,3*74
$GLGSV,3,3,10,86,16,127,35,3*40
$GAGSV,3,1,11,03,39,304,46,05,59,217,34,09,19,168,22,10,00,131,,7*7B
$GAGSV,3,2,11,12,07,110,36,14,42,083,43,24,77,036,46,25,43,250,35,7*7C
$GAGSV,3,3,11,26,03,016,29,31,27,060,43,33,13,060,43,7*4D
$GAGSV,3,1,11,03,39,304,39,05,59,217,38,09,19,168,,10,00,131,,2*7A
$GAGSV,3,2,11,12,07,110,34,14,42,083,48,24,77,036,46,25,43,250,36,2*73
$GAGSV,3,3,11,26,03,016,30,31,27,060,37,33,13,060,45,2*45
$GBGSV,3,1,09,08,07,004,30,13,03,014,31,14,32,290,45,21,18,205,28,1*7A
$GBGSV,3,2,09,24,21,275,43,26,67,300,48,29,35,083,47,30,10,033,,1*71
$GBGSV,3,3,09,33,19,316,45,1*42
$GBGSV,3,1,09,08,07,004,37,13,03,014,26,14,32,290,45,21,18,205,,3*73
$GBGSV,3,2,09,24,21,275,,26,67,300,,29,35,083,,30,10,033,,3*7B
$GBGSV,3,3,09,33,19,316,,3*41
$GNGLL,4533.04026,N,07336.12353,W,141512.00,A,A*61
$GNRMC,141513.00,A,4533.04026,N,07336.12353,W,0.003,,140323,,,A,V*07
$GNVTG,,T,,M,0.003,N,0.006,K,A*38
$GNGGA,141513.00,4533.04026,N,07336.12353,W,1,12,0.49,63.0,M,-32.6,M,,*44
$GNGSA,A,3,28,27,26,18,31,04,07,09,02,16,,,0.86,0.49,0.70,1*0A
$GNGSA,A,3,66,76,84,86,75,77,85,67,,,,,0.86,0.49,0.70,2*0B
$GNGSA,A,3,05,33,12,31,25,24,03,,,,,,0.86,0.49,0.70,3*01
$GNGSA,A,3,26,14,08,33,29,24,21,,,,,,0.86,0.49,0.70,4*07
$GPGSV,4,1,14,02,05,032,42,03,04,225,,04,64,252,43,07,15,293,43,1*6E
$GPGSV,4,2,14,08,20,185,,09,41,302,47,16,85,025,47,18,07,071,37,1*6D
$GPGSV,4,3,14,26,45,060,46,27,44,157,37,28,06,109,40,31,18,105,42,1*6C
$GPGSV,4,4,14,46,15,244,,48,18,240,,1*66
$GPGSV,4,1,14,02,05,032,,03,04,225,,04,64,252,38,07,15,293,28,6*6E
$GPGSV,4,2,14,08,20,185,,09,41,302,38,16,85,025,,18,07,071,41,6*60
$GPGSV,4,3,14,26,45,060,45,27,44,157,25,28,06,109,35,31,18,105,39,6*65
$GPGSV,4,4,14,46,15,244,,48,18,240,,6*61
$GLGSV,3,1,10,65,15,195,,66,50,249,39,67,31,320,46,75,34,060,44,1*72
$GLGSV,3,2,10,76,64,326,49,77,25,275,32,84,13,019,35,85,31,080,40,1*74
$GLGSV,3,3,10,86,16,127,40,1*40
$GLGSV,3,1,10,65,15,195,,66,50,249,28,67,31,320,34,75,34,060,41,3*70
$GLGSV,3,2,10,76,64,326,39,77,25,275,26,84,13,019,26,85,31,080,41,3*77
$GLGSV,3,3,10,86,16,127,35,3*40
µbãD @ " 1$ 1 % 1 3  3  3  3  4  4  4 4  4  5  5  5  5  6  6 6 6  6  7  7  A	 A
 A A  A A  A  Q  Q R R  R  S S  S  d  d  d  d  d  d  e e e  e  e  e  e 	 e  q q q r r r s s s t t tµµbã   Ä   ˇ'ûµb
  4µb ãô¬µb
‹ EXT CORE 1.00 (71b20c)        00190000  ROM BASE 0x118B2060           FWVER=TIM 2.01                PROTVER=29.00                 MOD=ZED-F9T                   GPS;GLO;GAL;BDS               SBAS;QZSS                     ˚ $GAGSV,3,1,11,03,39,304,46,05,59,217,34,09,19,168,21,10,00,131,,7*78
$GAGSV,3,2,11,12,07,110,36,14,42,083,43,24,77,036,46,25,43,250,35,7*7C
$GAGSV,3,3,11,26,03,016,30,31,27,060,43,33,13,060,43,7*45
$GAGSV,3,1,11,03,39,304,39,05,59,217,38,09,19,168,,10,00,131,,2*7A
$GAGSV,3,2,11,12,07,110,34,14,42,083,48,24,77,036,46,25,43,250,36,2*73
$GAGSV,3,3,11,26,03,016,30,31,27,060,37,33,13,060,45,2*45
$GBGSV,3,1,09,08,07,004,30,13,03,014,31,14,32,290,45,21,18,205,28,1*7A
$GBGSV,3,2,09,24,21,275,43,26,67,300,48,29,35,083,46,30,10,033,,1*70
$GBGSV,3,3,09,33,19,316,44,1*43
$GBGSV,3,1,09,08,07,004,36,13,03,014,26,14,32,290,45,21,18,205,,3*72
$GBGSV,3,2,09,24,21,275,,26,67,300,,29,35,083,,30,10,033,,3*7B
$GBGSV,3,3,09,33,19,316,,3*41
$GNGLL,4533.04026,N,07336.12353,W,141513.00,A,A*60
$GNRMC,141514.00,A,4533.04026,N,07336.12353,W,0.003,,140323,,,A,V*00
$GNVTG,,T,,M,0.003,N,0.006,K,A*38
$GNGGA,141514.00,4533.04026,N,07336.12353,W,1,12,0.49,63.0,M,-32.6,M,,*43
$GNGSA,A,3,28,27,26,18,31,04,07,09,02,16,,,0.86,0.49,0.70,1*0A
$GNGSA,A,3,66,76,84,86,75,77,85,67,,,,,0.86,0.49,0.70,2*0B
$GNGSA,A,3,05,33,12,31,25,24,03,,,,,,0.86,0.49,0.70,3*01
$GNGSA,A,3,26,14,08,33,29,24,21,,,,,,0.86,0.49,0.70,4*07
$GPGSV,4,1,14,02,05,032,42,03,04,225,,04,64,252,43,07,15,293,43,1*6E
$GPGSV,4,2,14,08,20,185,,09,41,302,47,16,85,025,46,18,07,071,37,1*6C
$GPGSV,4,3,14,26,45,060,46,27,44,157,36,28,06,109,40,31,18,105,42,1*6D
$GPGSV,4,4,14,46,15,244,,48,18,240,,1*66
$GPGSV,4,1,14,02,05,032,,03,04,225,,04,64,252,38,07,15,293,29,6*6F
$GPGSV,4,2,14,08,20,185,,09,41,302,38,16,85,025,,18,07,071,41,6*60
$GPGSV,4,3,14,26,45,060,45,27,44,157,26,28,06,109,35,31,18,105,39,6*66
$GPGSV,4,4,14,46,15,244,,48,18,240,,6*61
$GLGSV,3,1,10,65,15,195,,66,50,249,39,67,31,320,46,75,34,060,44,1*72
$GLGSV,3,2,10,76,64,326,49,77,25,275,32,84,13,019,35,85,31,080,40,1*74
$GLGSV,3,3,10,86,16,127,40,1*40
$GLGSV,3,1,10,65,15,195,,66,50,249,28,67,31,320,34,75,34,060,41,3*70
$GLGSV,3,2,10,76,64,326,39,77,25,275,26,84,13,019,26,85,31,080,42,3*74
$GLGSV,3,3,10,86,16,127,35,3*40
$GAGSV,3,1,11,03,39,304,46,05,59,217,34,09,19,168,21,10,00,131,,7*78
$GAGSV,3,2,11,12,07,110,37,14,42,083,43,24,77,036,46,25,43,250,34,7*7C
$GAGSV,3,3,11,26,03,016,29,31,27,060,43,33,13,060,43,7*4D
$GAGSV,3,1,11,03,39,304,38,05,59,217,38,09,19,168,,10,00,131,,2*7B
$GAGSV,3,2,11,12,07,110,34,14,42,083,48,24,77,036,46,25,43,250,36,2*73
$GAGSV,3,3,11,26,03,016,31,31,27,060,37,33,13,060,45,2*44
$GBGSV,3,1,09,08,07,004,30,13,03,014,31,14,32,290,45,21,18,205,27,1*75
$GBGSV,3,2,09,24,21,275,43,26,67,300,48,29,35,083,47,30,10,033,,1*71
$GBGSV,3,3,09,33,19,316,45,1*42
$GBGSV,3,1,09,08,07,004,36,13,03,014,26,14,32,290,45,21,18,205,,3*72
$GBGSV,3,2,09,24,21,275,,26,67,300,,29,35,083,,30,10,033,,3*7B
$GBGSV,3,3,09,33,19,316,,3*41
$GNGLL,4533.04026,N,07336.12353,W,141514.00,A,A*67
$GNRMC,141515.00,A,4533.04026,N,07336.12353,W,0.002,,140323,,,A,V*00
$GNVTG,,T,,M,0.002,N,0.004,K,A*3B
$GNGGA,141515.00,4533.04026,N,07336.12353,W,1,12,0.49,63.0,M,-32.6,M,,*42
$GNGSA,A,3,28,27,26,18,31,04,07,09,02,16,,,0.86,0.49,0.70,1*0A
$GNGSA,A,3,66,76,84,86,75,77,85,67,,,,,0.86,0.49,0.70,2*0B
$GNGSA,A,3,05,33,12,31,25,24,03,,,,,,0.86,0.49,0.70,3*01
$GNGSA,A,3,26,14,08,33,29,24,21,,,,,,0.86,0.49,0.70,4*07
$GPGSV,4,1,14,02,05,032,42,03,04,225,,04,64,252,43,07,15,293,43,1*6E
$GPGSV,4,2,14,08,20,185,,09,41,302,47,16,85,025,46,18,07,071,37,1*6C
$GPGSV,4,3,14,26,45,060,46,27,44,157,36,28,06,109,40,31,18,105,42,1*6D
$GPGSV,4,4,14,46,15,244,,48,18,240,,1*66
$GPGSV,4,1,14,02,05,032,,03,04,225,,04,64,252,38,07,15,293,28,6*6E
$GPGSV,4,2,14,08,20,185,,09,41,302,38,16,85,025,,18,07,071,40,6*61
$GPGSV,4,3,14,26,45,060,45,27,44,157,26,28,06,109,35,31,18,105,38,6*67
$GPGSV,4,4,14,46,15,244,,48,18,240,,6*61
$GLGSV,3,1,10,65,15,195,,66,50,249,38,67,31,320,46,75,34,060,44,1*73
$GLGSV,3,2,10,76,64,326,49,77,25,275,32,84,13,019,35,85,31,080,40,1*74
$GLGSV,3,3,10,86,16,127,41,1*41
$GLGSV,3,1,10,65,15,195,,66,50,249,28,67,31,320,34,75,34,060,41,3*70
$GLGSV,3,2,10,76,64,326,39,77,25,275,26,84,13,019,27,85,31,080,41,3*76
$GLGSV,3,3,10,86,16,127,35,3*40
$GAGSV,3,1,11,03,39,304,46,05,59,217,35,09,19,168,20,10,00,131,,7*78
$GAGSV,3,2,11,12,07,110,37,14,42,083,43,24,77,036,46,25,43,250,34,7*7C
$GAGSV,3,3,11,26,03,016,29,31,27,060,43,33,13,060,43,7*4D
$GAGSV,3,1,11,03,39,304,39,05,59,217,38,09,19,168,,10,00,131,,2*7A
$GAGSV,3,2,11,12,07,110,34,14,42,083,48,24,77,036,46,25,43,250,36,2*73
$GAGSV,3,3,11,26,03,016,31,31,27,060,37,33,13,060,45,2*44
$GBGSV,3,1,09,08,07,004,30,13,03,014,31,14,32,290,45,21,18,205,28,1*7A
$GBGSV,3,2,09,24,21,275,43,26,67,300,48,29,35,083,46,30,10,033,,1*70
$GBGSV,3,3,09,33,19,316,44,1*43
$GBGSV,3,1,09,08,07,004,36,13,03,014,25,14,32,290,45,21,18,205,,3*71
$GBGSV,3,2,09,24,21,275,,26,67,300,,29,35,083,,30,10,033,,3*7B
$GBGSV,3,3,09,33,19,316,,3*41
$GNGLL,4533.04026,N,07336.12353,W,141515.00,A,A*66
$GNRMC,141516.00,A,4533.04026,N,07336.12353,W,0.002,,140323,,,A,V*03
$GNVTG,,T,,M,0.002,N,0.003,K,A*3C
$GNGGA,141516.00,4533.04026,N,07336.12353,W,1,12,0.49,63.1,M,-32.6,M,,*40
$GNGSA,A,3,28,27,26,18,31,04,07,09,02,16,,,0.86,0.49,0.70,1*0A
$GNGSA,A,3,66,76,84,86,75,77,85,67,,,,,0.86,0.49,0.70,2*0B
$GNGSA,A,3,05,33,12,31,25,24,03,,,,,,0.86,0.49,0.70,3*01
$GNGSA,A,3,26,14,08,33,29,24,21,,,,,,0.86,0.49,0.70,4*07
$GPGSV,4,1,14,02,05,032,42,03,04,225,,04,64,252,43,07,15,293,42,1*6F
$GPGSV,4,2,14,08,20,185,,09,41,302,47,16,85,025,46,18,07,071,37,1*6C
$GPGSV,4,3,14,26,45,060,46,27,44,157,35,28,06,109,40,31,18,105,42,1*6E
$GPGSV,4,4,14,46,15,244,,48,18,240,,1*66
$GPGSV,4,1,14,02,05,032,,03,04,225,,04,64,252,38,07,15,293,28,6*6E
$GPGSV,4,2,14,08,20,185,,09,41,302,38,16,85,025,,18,07,071,40,6*61
$GPGSV,4,3,14,26,45,060,45,27,44,157,25,28,06,109,34,31,18,105,39,6*64
$GPGSV,4,4,14,46,15,244,,48,18,240,,6*61
$GLGSV,3,1,10,65,15,195,,66,50,249,38,67,31,320,46,75,34,060,44,1*73
$GLGSV,3,2,10,76,64,326,49,77,25,275,32,84,13,019,35,85,31,080,41,1*75
$GLGSV,3,3,10,86,16,127,40,1*40
$GLGSV,3,1,10,65,15,195,,66,50,249,28,67,31,320,34,75,34,060,41,3*70
$GLGSV,3,2,10,76,64,326,39,77,25,275,26,84,13,019,27,85,31,080,41,3*76
$GLGSV,3,3,10,86,16,127,35,3*40
$GAGSV,3,1,11,03,39,304,46,05,59,217,34,09,19,168,22,10,00,131,,7*7B
$GAGSV,3,2,11,12,07,110,36,14,42,083,43,24,77,036,46,25,43,250,35,7*7C
$GAGSV,3,3,11,26,03,016,30,31,27,060,44,33,13,060,43,7*42
$GAGSV,3,1,11,03,39,304,39,05,59,217,38,09,19,168,,10,00,131,,2*7A
$GAGSV,3,2,11,12,07,110,34,14,42,083,48,24,77,036,46,25,43,250,36,2*73
$GAGSV,3,3,11,26,03,016,31,31,27,060,37,33,13,060,45,2*44
$GBGSV,3,1,09,08,07,004,30,13,03,014,31,14,32,290,45,21,18,205,27,1*75
$GBGSV,3,2,09,24,21,275,43,26,67,300,48,29,35,083,46,30,10,033,,1*70
$GBGSV,3,3,09,33,19,316,45,1*42
$GBGSV,3,1,09,08,07,004,36,13,03,014,26,14,32,290,45,21,18,205,,3*72
$GBGSV,3,2,09,24,21,275,,26,67,300,,29,35,083,,30,10,033,,3*7B
$GBGSV,3,3,09,33,19,316,,3*41
$GNGLL,4533.04026,N,07336.12353,W,141516.00,A,A*65
$GNRMC,141517.00,A,4533.04026,N,07336.12353,W,0.002,,140323,,,A,V*02
$GNVTG,,T,,M,0.002,N,0.003,K,A*3C
$GNGGA,141517.00,4533.04026,N,07336.12353,W,1,12,0.49,63.1,M,-32.6,M,,*41
$GNGSA,A,3,28,27,26,18,31,04,07,09,02,16,,,0.86,0.49,0.70,1*0A
$GNGSA,A,3,66,76,84,86,75,77,85,67,,,,,0.86,0.49,0.70,2*0B
$GNGSA,A,3,05,33,12,31,25,24,03,,,,,,0.86,0.49,0.70,3*01
$GNGSA,A,3,26,14,08,33,29,24,21,,,,,,0.86,0.49,0.70,4*07
$GPGSV,4,1,14,02,05,032,42,03,04,225,,04,64,252,43,07,15,293,43,1*6E
$GPGSV,4,2,14,08,20,185,28,09,41,302,47,16,85,025,46,18,07,071,37,1*66
$GPGSV,4,3,14,26,45,060,46,27,44,157,35,28,06,109,41,31,18,105,42,1*6F
$GPGSV,4,4,14,46,15,244,,48,18,240,,1*66
$GPGSV,4,1,14,02,05,032,,03,04,225,,04,64,252,38,07,15,293,28,6*6E
$GPGSV,4,2,14,08,20,185,,09,41,302,38,16,85,025,,18,07,071,40,6*61
$GPGSV,4,3,14,26,45,060,45,27,44,157,26,28,06,109,35,31,18,105,39,6*66
$GPGSV,4,4,14,46,15,244,,48,18,240,,6*61
$GLGSV,3,1,10,65,15,195,,66,50,249,38,67,31,320,46,75,34,060,44,1*73
$GLGSV,3,2,10,76,64,326,49,77,25,275,32,84,13,019,35,85,31,080,41,1*75
$GLGSV,3,3,10,86,16,127,40,1*40
$GLGSV,3,1,10,65,15,195,,66,50,249,29,67,31,320,34,75,34,060,41,3*71
$GLGSV,3,2,10,76,64,326,39,77,25,275,26,84,13,019,27,85,31,080,41,3*76
$GLGSV,3,3,10,86,16,127,35,3*40
$GAGSV,3,1,11,03,39,304,46,05,59,217,34,09,19,168,22,10,00,131,,7*7B
$GAGSV,3,2,11,12,07,110,36,14,42,083,43,24,77,036,46,25,43,250,34,7*7D
$GAGSV,3,3,11,26,03,016,31,31,27,060,43,33,13,060,43,7*44
$GAGSV,3,1,11,03,39,304,39,05,59,217,38,09,19,168,,10,00,131,,2*7A
$GAGSV,3,2,11,12,07,110,34,14,42,083,48,24,77,036,46,25,43,250,36,2*73
$GAGSV,3,3,11,26,03,016,31,31,27,060,36,33,13,060,45,2*45
$GBGSV,3,1,09,08,07,004,31,13,03,014,31,14,32,290,45,21,18,205,28,1*7B
$GBGSV,3,2,09,24,21,275,43,26,67,300,49,29,35,083,46,30,10,033,,1*71
$GBGSV,3,3,09,33,19,316,45,1*42
$GBGSV,3,1,09,08,07,004,36,13,03,014,26,14,32,290,45,21,18,205,,3*72
$GBGSV,3,2,09,24,21,275,,26,67,300,,29,35,083,,30,10,033,,3*7B
$GBGSV,3,3,09,33,19,316,,3*41
$GNGLL,4533.04026,N,07336.12353,W,141517.00,A,A*64
µbãD Ä  u  u  u v  v  v w w w x x x y y y z z z Å  Å  Å  Å  Å  Ç  Ç  Ç  Ç  Ç  É  É  É  É  É  Ñ  Ñ  Ñ  Ñ  Ñ  Ö  Ö  Ö  Ö  Ö  ì  ì ì  ì  ì  ì  ì  ì  ì  ì  ì ! ì " ì # ì $ ì % ì & ì  °  °  ° ¢ –lµbã   ¿   ˇgµb
  4µb ãô¬µb
‹ EXT CORE 1.00 (71b20c)        00190000  ROM BASE 0x118B2060           FWVER=TIM 2.01                PROTVER=29.00                 MOD=ZED-F9T                   GPS;GLO;GAL;BDS               SBAS;QZSS                     ˚ $GNRMC,141518.00,A,4533.04026,N,07336.12353,W,0.001,,140323,,,A,V*0E
$GNVTG,,T,,M,0.001,N,0.003,K,A*3F
$GNGGA,141518.00,4533.04026,N,07336.12353,W,1,12,0.49,63.1,M,-32.6,M,,*4E
$GNGSA,A,3,28,27,26,18,31,04,07,09,02,16,,,0.86,0.49,0.70,1*0A
$GNGSA,A,3,66,76,84,86,75,77,85,67,,,,,0.86,0.49,0.70,2*0B
$GNGSA,A,3,05,33,12,31,25,24,03,,,,,,0.86,0.49,0.70,3*01
$GNGSA,A,3,26,14,08,33,29,24,21,,,,,,0.86,0.49,0.70,4*07
$GPGSV,4,1,14,02,05,032,42,03,04,225,,04,64,252,43,07,15,293,42,1*6F
$GPGSV,4,2,14,08,20,185,27,09,41,302,47,16,85,025,46,18,07,071,38,1*66
$GPGSV,4,3,14,26,45,060,46,27,44,157,35,28,06,109,41,31,18,105,42,1*6F
$GPGSV,4,4,14,46,15,244,,48,18,240,,1*66
$GPGSV,4,1,14,02,05,032,,03,04,225,,04,64,252,38,07,15,293,28,6*6E
$GPGSV,4,2,14,08,20,185,,09,41,302,39,16,85,025,,18,07,071,40,6*60
$GPGSV,4,3,14,26,45,060,45,27,44,157,26,28,06,109,34,31,18,105,39,6*67
$GPGSV,4,4,14,46,15,244,,48,18,240,,6*61
$GLGSV,3,1,10,65,15,195,,66,50,249,38,67,31,320,46,75,34,060,44,1*73
$GLGSV,3,2,10,76,64,326,49,77,25,275,32,84,13,019,35,85,31,080,41,1*75
$GLGSV,3,3,10,86,16,127,40,1*40
$GLGSV,3,1,10,65,15,195,,66,50,249,29,67,31,320,34,75,34,060,41,3*71
$GLGSV,3,2,10,76,64,326,39,77,25,275,26,84,13,019,27,85,31,080,42,3*75
$GLGSV,3,3,10,86,16,127,35,3*40
$GAGSV,3,1,11,03,39,304,46,05,59,217,34,09,19,168,22,10,00,131,,7*7B
$GAGSV,3,2,11,12,07,110,36,14,42,083,43,24,77,036,46,25,43,250,35,7*7C
$GAGSV,3,3,11,26,03,016,31,31,27,060,43,33,13,060,43,7*44
$GAGSV,3,1,11,03,39,304,39,05,59,217,38,09,19,168,,10,00,131,,2*7A
$GAGSV,3,2,11,12,07,110,34,14,42,083,48,24,77,036,46,25,43,250,36,2*73
$GAGSV,3,3,11,26,03,016,31,31,27,060,36,33,13,060,45,2*45
$GBGSV,3,1,09,08,07,004,31,13,03,014,31,14,32,290,45,21,18,205,27,1*74
$GBGSV,3,2,09,24,21,275,43,26,67,300,48,29,35,083,46,30,10,033,,1*70
$GBGSV,3,3,09,33,19,316,44,1*43
$GBGSV,3,1,09,08,07,004,36,13,03,014,25,14,32,290,45,21,18,205,,3*71
$GBGSV,3,2,09,24,21,275,,26,67,300,,29,35,083,,30,10,033,,3*7B
$GBGSV,3,3,09,33,19,316,,3*41
$GNGLL,4533.04026,N,07336.12353,W,141518.00,A,A*6B
$GNRMC,141519.00,A,4533.04026,N,07336.12353,W,0.001,,140323,,,A,V*0F
$GNVTG,,T,,M,0.001,N,0.002,K,A*3E
$GNGGA,141519.00,4533.04026,N,07336.12353,W,1,12,0.49,63.1,M,-32.6,M,,*4F
$GNGSA,A,3,28,27,26,18,31,04,07,09,02,16,,,0.86,0.49,0.70,1*0A
$GNGSA,A,3,66,76,84,86,75,77,85,67,,,,,0.86,0.49,0.70,2*0B
$GNGSA,A,3,05,33,12,31,25,24,03,,,,,,0.86,0.49,0.70,3*01
$GNGSA,A,3,26,14,08,33,29,24,21,,,,,,0.86,0.49,0.70,4*07
$GPGSV,4,1,14,02,05,032,42,03,04,225,,04,64,252,44,07,15,293,42,1*68
$GPGSV,4,2,14,08,20,185,,09,41,302,47,16,85,025,46,18,07,071,38,1*63
$GPGSV,4,3,14,26,45,060,46,27,44,157,36,28,06,109,40,31,18,105,42,1*6D
$GPGSV,4,4,14,46,15,244,,48,18,240,,1*66
$GPGSV,4,1,14,02,05,032,,03,04,225,,04,64,252,38,07,15,293,28,6*6E
$GPGSV,4,2,14,08,20,185,,09,41,302,38,16,85,025,,18,07,071,40,6*61
$GPGSV,4,3,14,26,45,060,45,27,44,157,26,28,06,109,34,31,18,105,39,6*67
$GPGSV,4,4,14,46,15,244,,48,18,240,,6*61
$GLGSV,3,1,10,65,15,195,,66,50,249,38,67,31,320,46,75,34,060,44,1*73
$GLGSV,3,2,10,76,64,326,49,77,25,275,32,84,13,019,35,85,31,080,40,1*74
$GLGSV,3,3,10,86,16,127,40,1*40
$GLGSV,3,1,10,65,15,195,,66,50,249,28,67,31,320,34,75,34,060,41,3*70
$GLGSV,3,2,10,76,64,326,39,77,25,275,26,84,13,019,27,85,31,080,42,3*75
$GLGSV,3,3,10,86,16,127,35,3*40
$GAGSV,3,1,11,03,39,304,46,05,59,217,34,09,19,168,22,10,00,131,,7*7B
$GAGSV,3,2,11,12,07,110,36,14,42,083,43,24,77,036,46,25,43,250,35,7*7C
$GAGSV,3,3,11,26,03,016,30,31,27,060,43,33,13,060,43,7*45
$GAGSV,3,1,11,03,39,304,38,05,59,217,38,09,19,168,,10,00,131,,2*7B
$GAGSV,3,2,11,12,07,110,34,14,42,083,48,24,77,036,46,25,43,250,36,2*73
$GAGSV,3,3,11,26,03,016,31,31,27,060,36,33,13,060,45,2*45
$GBGSV,3,1,09,08,07,004,31,13,03,014,31,14,32,290,45,21,18,205,27,1*74
$GBGSV,3,2,09,24,21,275,44,26,67,300,49,29,35,083,46,30,10,033,,1*76
$GBGSV,3,3,09,33,19,316,44,1*43
$GBGSV,3,1,09,08,07,004,36,13,03,014,26,14,32,290,45,21,18,205,,3*72
$GBGSV,3,2,09,24,21,275,,26,67,300,,29,35,083,,30,10,033,,3*7B
$GBGSV,3,3,09,33,19,316,,3*41
$GNGLL,4533.04026,N,07336.12353,W,141519.00,A,A*6A
$GNRMC,141520.00,A,4533.04026,N,07336.12352,W,0.001,,140323,,,A,V*04
$GNVTG,,T,,M,0.001,N,0.003,K,A*3F
$GNGGA,141520.00,4533.04026,N,07336.12352,W,1,12,0.49,63.1,M,-32.6,M,,*44
$GNGSA,A,3,28,27,26,18,31,04,07,09,02,16,,,0.86,0.49,0.70,1*0A
$GNGSA,A,3,66,76,84,86,75,77,85,67,,,,,0.86,0.49,0.70,2*0B
$GNGSA,A,3,05,33,12,31,25,24,03,,,,,,0.86,0.49,0.70,3*01
$GNGSA,A,3,26,14,08,33,29,24,21,,,,,,0.86,0.49,0.70,4*07
$GPGSV,4,1,14,02,05,032,42,03,04,225,,04,64,252,44,07,15,293,42,1*68
$GPGSV,4,2,14,08,20,185,,09,41,302,47,16,85,025,46,18,07,071,38,1*63
$GPGSV,4,3,14,26,45,060,46,27,44,157,35,28,06,109,40,31,18,105,42,1*6E
$GPGSV,4,4,14,46,15,244,,48,18,240,,1*66
$GPGSV,4,1,14,02,05,032,,03,04,225,,04,64,252,38,07,15,293,28,6*6E
$GPGSV,4,2,14,08,20,185,,09,41,302,38,16,85,025,,18,07,071,40,6*61
$GPGSV,4,3,14,26,45,060,45,27,44,157,27,28,06,109,34,31,18,105,39,6*66
$GPGSV,4,4,14,46,15,244,,48,18,240,,6*61
$GLGSV,3,1,10,65,15,195,,66,50,249,38,67,31,320,46,75,34,060,44,1*73
$GLGSV,3,2,10,76,64,326,49,77,25,275,32,84,13,019,35,85,31,080,40,1*74
$GLGSV,3,3,10,86,16,127,41,1*41
$GLGSV,3,1,10,65,15,195,,66,50,249,29,67,31,320,34,75,34,060,41,3*71
$GLGSV,3,2,10,76,64,326,39,77,25,275,26,84,13,019,27,85,31,080,42,3*75
$GLGSV,3,3,10,86,16,127,35,3*40
$GAGSV,3,1,11,03,39,304,46,05,59,217,35,09,19,168,22,10,00,131,,7*7A
$GAGSV,3,2,11,12,07,110,36,14,42,083,43,24,77,036,46,25,43,250,34,7*7D
$GAGSV,3,3,11,26,03,016,31,31,27,060,44,33,13,060,43,7*43
$GAGSV,3,1,11,03,39,304,38,05,59,217,38,09,19,168,,10,00,131,,2*7B
$GAGSV,3,2,11,12,07,110,34,14,42,083,48,24,77,036,46,25,43,250,36,2*73
$GAGSV,3,3,11,26,03,016,30,31,27,060,36,33,13,060,45,2*44
$GBGSV,3,1,09,08,07,004,32,13,03,014,31,14,32,290,45,21,18,205,27,1*77
$GBGSV,3,2,09,24,21,275,43,26,67,300,49,29,35,083,46,30,10,033,,1*71
$GBGSV,3,3,09,33,19,316,44,1*43
$GBGSV,3,1,09,08,07,004,36,13,03,014,26,14,32,290,45,21,18,205,,3*72
$GBGSV,3,2,09,24,21,275,,26,67,300,,29,35,083,,30,10,033,,3*7B
$GBGSV,3,3,09,33,19,316,,3*41
$GNGLL,4533.04026,N,07336.12352,W,141520.00,A,A*61
$GNRMC,141521.00,A,4533.04026,N,07336.12352,W,0.002,,140323,,,A,V*06
$GNVTG,,T,,M,0.002,N,0.004,K,A*3B
$GNGGA,141521.00,4533.04026,N,07336.12352,W,1,12,0.49,63.1,M,-32.6,M,,*45
$GNGSA,A,3,28,27,26,18,31,04,07,09,02,16,,,0.86,0.49,0.70,1*0A
$GNGSA,A,3,66,76,84,86,75,77,85,67,,,,,0.86,0.49,0.70,2*0B
$GNGSA,A,3,05,33,12,31,25,24,03,,,,,,0.86,0.49,0.70,3*01
$GNGSA,A,3,26,14,08,33,29,24,21,,,,,,0.86,0.49,0.70,4*07
$GPGSV,4,1,14,02,05,032,42,03,04,225,,04,64,252,44,07,15,293,43,1*69
$GPGSV,4,2,14,08,20,185,,09,41,302,47,16,85,025,46,18,07,071,38,1*63
$GPGSV,4,3,14,26,45,060,46,27,44,157,35,28,06,109,40,31,18,105,42,1*6E
$GPGSV,4,4,14,46,15,244,,48,18,240,,1*66
$GPGSV,4,1,14,02,05,032,,03,04,225,,04,64,252,38,07,15,293,28,6*6E
$GPGSV,4,2,14,08,20,185,,09,41,302,39,16,85,025,,18,07,071,40,6*60
$GPGSV,4,3,14,26,45,060,45,27,44,157,27,28,06,109,34,31,18,105,39,6*66
$GPGSV,4,4,14,46,15,244,,48,18,240,,6*61
$GLGSV,3,1,10,65,15,195,,66,50,249,38,67,31,320,46,75,33,060,43,1*73
$GLGSV,3,2,10,76,64,326,49,77,25,275,32,84,13,019,35,85,31,080,40,1*74
$GLGSV,3,3,10,86,16,127,41,1*41
$GLGSV,3,1,10,65,15,195,,66,50,249,29,67,31,320,34,75,33,060,41,3*76
$GLGSV,3,2,10,76,64,326,39,77,25,275,25,84,13,019,26,85,31,080,42,3*77
$GLGSV,3,3,10,86,16,127,35,3*40
$GAGSV,3,1,11,03,39,304,46,05,59,217,35,09,19,168,21,10,00,131,,7*79
$GAGSV,3,2,11,12,07,110,36,14,42,083,43,24,77,036,46,25,43,250,35,7*7C
$GAGSV,3,3,11,26,03,016,31,31,27,060,44,33,13,060,43,7*43
$GAGSV,3,1,11,03,39,304,39,05,59,217,38,09,19,168,,10,00,131,,2*7A
$GAGSV,3,2,11,12,07,110,34,14,42,083,48,24,77,036,46,25,43,250,36,2*73
$GAGSV,3,3,11,26,03,016,30,31,27,060,36,33,13,060,45,2*44
$GBGSV,3,1,09,08,07,004,31,13,03,014,32,14,32,290,45,21,18,205,27,1*77
$GBGSV,3,2,09,24,21,275,43,26,67,300,48,29,35,083,46,30,10,033,,1*70
$GBGSV,3,3,09,33,19,316,44,1*43
$GBGSV,3,1,09,08,07,004,36,13,03,014,26,14,32,290,45,21,18,205,,3*72
$GBGSV,3,2,09,24,21,275,,26,67,300,,29,35,083,,30,10,033,,3*7B
$GBGSV,3,3,09,33,19,316,,3*41
$GNGLL,4533.04026,N,07336.12352,W,141521.00,A,A*60
µbãD ¿  ¢  £ £ £ 	 £
 £  £  £  £  £ £ £  £ £  £ ) £ , £ . £ / £ 0 £1 £ 2 £3 £ 4 £5 £ G £V £  • ∆  «  «  ﬁ  ﬁ  ﬁ    !   1   A   Q   a   q   Å   ë   °   ±   ¡   —   ·     !  1  A  Q  a  q  Å  ë  °  ±  ¡  —  ·        ˝Gµbã      ˇ®£µb
  4µb ãô¬µb
‹ EXT CORE 1.00 (71b20c)        00190000  ROM BASE 0x118B2060           FWVER=TIM 2.01                PROTVER=29.00                 MOD=ZED-F9T                   GPS;GLO;GAL;BDS               SBAS;QZSS                     ˚ $GNRMC,141522.00,A,4533.04026,N,07336.12352,W,0.002,,140323,,,A,V*05
$GNVTG,,T,,M,0.002,N,0.004,K,A*3B
$GNGGA,141522.00,4533.04026,N,07336.12352,W,1,12,0.49,63.1,M,-32.6,M,,*46
$GNGSA,A,3,28,27,26,18,31,04,07,09,02,16,,,0.86,0.49,0.70,1*0A
$GNGSA,A,3,66,76,84,86,75,77,85,67,,,,,0.86,0.49,0.70,2*0B
$GNGSA,A,3,05,33,12,31,25,24,03,,,,,,0.86,0.49,0.70,3*01
$GNGSA,A,3,26,14,08,33,29,24,21,,,,,,0.86,0.49,0.70,4*07
$GPGSV,4,1,14,02,05,032,43,03,04,225,,04,64,252,44,07,15,293,42,1*69
$GPGSV,4,2,14,08,20,185,,09,41,302,47,16,85,025,46,18,07,071,38,1*63
$GPGSV,4,3,14,26,45,060,47,27,44,157,35,28,06,109,40,31,18,105,42,1*6F
$GPGSV,4,4,14,46,15,244,,48,18,240,,1*66
$GPGSV,4,1,14,02,05,032,,03,04,225,,04,64,252,38,07,15,293,28,6*6E
$GPGSV,4,2,14,08,20,185,,09,41,302,39,16,85,025,,18,07,071,40,6*60
$GPGSV,4,3,14,26,45,060,45,27,44,157,27,28,06,109,34,31,18,105,39,6*66
$GPGSV,4,4,14,46,15,244,,48,18,240,,6*61
$GLGSV,3,1,10,65,15,195,,66,50,249,39,67,31,320,46,75,33,060,43,1*72
$GLGSV,3,2,10,76,64,329,49,77,25,275,32,84,13,019,35,85,31,080,40,1*7B
$GLGSV,3,3,10,86,16,127,40,1*40
$GLGSV,3,1,10,65,15,195,,66,50,249,29,67,31,320,34,75,33,060,41,3*76
$GLGSV,3,2,10,76,64,329,39,77,25,275,26,84,13,019,26,85,31,080,42,3*7B
$GLGSV,3,3,10,86,16,127,35,3*40
$GAGSV,3,1,11,03,39,304,46,05,59,217,35,09,19,168,22,10,00,131,,7*7A
$GAGSV,3,2,11,12,07,110,36,14,42,083,43,24,77,036,46,25,43,250,35,7*7C
$GAGSV,3,3,11,26,03,016,30,31,27,060,44,33,13,060,43,7*42
$GAGSV,3,1,11,03,39,304,38,05,59,217,38,09,19,168,,10,00,131,,2*7B
$GAGSV,3,2,11,12,07,110,34,14,42,083,48,24,77,036,46,25,43,250,36,2*73
$GAGSV,3,3,11,26,03,016,30,31,27,060,36,33,13,060,45,2*44
$GBGSV,3,1,09,08,07,004,31,13,03,014,32,14,32,290,45,21,18,205,27,1*77
$GBGSV,3,2,09,24,21,275,43,26,67,300,48,29,35,083,46,30,10,033,,1*70
$GBGSV,3,3,09,33,19,316,44,1*43
$GBGSV,3,1,09,08,07,004,36,13,03,014,26,14,32,290,45,21,18,205,,3*72
$GBGSV,3,2,09,24,21,275,,26,67,300,,29,35,083,,30,10,033,,3*7B
$GBGSV,3,3,09,33,19,316,,3*41
$GNGLL,4533.04026,N,07336.12352,W,141522.00,A,A*63
$GNRMC,141523.00,A,4533.04027,N,07336.12351,W,0.003,,140323,,,A,V*07
$GNVTG,,T,,M,0.003,N,0.005,K,A*3B
$GNGGA,141523.00,4533.04027,N,07336.12351,W,1,12,0.49,63.1,M,-32.6,M,,*45
$GNGSA,A,3,28,27,26,18,31,04,07,09,02,16,,,0.86,0.49,0.70,1*0A
$GNGSA,A,3,66,76,84,86,75,77,85,67,,,,,0.86,0.49,0.70,2*0B
$GNGSA,A,3,05,33,12,31,25,24,03,,,,,,0.86,0.49,0.70,3*01
$GNGSA,A,3,26,14,08,33,29,24,21,,,,,,0.86,0.49,0.70,4*07
$GPGSV,4,1,14,02,05,032,43,03,04,225,,04,64,252,44,07,15,293,42,1*69
$GPGSV,4,2,14,08,20,185,,09,41,302,47,16,85,025,46,18,07,071,38,1*63
$GPGSV,4,3,14,26,45,060,46,27,44,157,35,28,06,109,40,31,18,105,42,1*6E
$GPGSV,4,4,14,46,15,244,,48,18,240,,1*66
$GPGSV,4,1,14,02,05,032,,03,04,225,,04,64,252,38,07,15,293,28,6*6E
$GPGSV,4,2,14,08,20,185,,09,41,302,39,16,85,025,,18,07,071,40,6*60
$GPGSV,4,3,14,26,45,060,45,27,44,157,27,28,06,109,33,31,18,105,38,6*60
$GPGSV,4,4,14,46,15,244,,48,18,240,,6*61
$GLGSV,3,1,10,65,15,195,,66,50,249,40,67,31,320,46,75,33,060,43,1*7C
$GLGSV,3,2,10,76,64,329,49,77,26,276,32,84,13,019,35,85,31,080,40,1*7B
$GLGSV,3,3,10,86,16,127,40,1*40
$GLGSV,3,1,10,65,15,195,,66,50,249,29,67,31,320,34,75,33,060,40,3*77
$GLGSV,3,2,10,76,64,329,39,77,26,276,26,84,13,019,26,85,31,080,42,3*7B
$GLGSV,3,3,10,86,16,127,34,3*41
$GAGSV,3,1,11,03,39,304,46,05,59,217,35,09,19,168,23,10,00,131,,7*7B
$GAGSV,3,2,11,12,07,109,36,14,42,083,43,24,77,036,46,25,43,250,35,7*74
$GAGSV,3,3,11,26,03,016,31,31,27,060,44,33,13,060,43,7*43
$GAGSV,3,1,11,03,39,304,38,05,59,217,38,09,19,168,,10,00,131,,2*7B
$GAGSV,3,2,11,12,07,109,34,14,42,083,48,24,77,036,46,25,43,250,36,2*7B
$GAGSV,3,3,11,26,03,016,30,31,27,060,36,33,13,060,45,2*44
$GBGSV,3,1,09,08,07,004,31,13,03,014,32,14,32,290,44,21,18,205,27,1*76
$GBGSV,3,2,09,24,21,275,43,26,67,300,48,29,35,083,46,30,10,033,,1*70
$GBGSV,3,3,09,33,19,316,44,1*43
$GBGSV,3,1,09,08,07,004,36,13,03,014,26,14,32,290,45,21,18,205,,3*72
$GBGSV,3,2,09,24,21,275,,26,67,300,,29,35,083,,30,10,033,,3*7B
$GBGSV,3,3,09,33,19,316,,3*41
$GNGLL,4533.04027,N,07336.12351,W,141523.00,A,A*60
$GNRMC,141524.00,A,4533.04027,N,07336.12351,W,0.003,,140323,,,A,V*00
$GNVTG,,T,,M,0.003,N,0.006,K,A*38
$GNGGA,141524.00,4533.04027,N,07336.12351,W,1,12,0.49,63.2,M,-32.6,M,,*41
$GNGSA,A,3,28,27,26,18,31,04,07,09,02,16,,,0.86,0.49,0.70,1*0A
$GNGSA,A,3,66,76,84,86,75,77,85,67,,,,,0.86,0.49,0.70,2*0B
$GNGSA,A,3,05,33,12,31,25,24,03,,,,,,0.86,0.49,0.70,3*01
$GNGSA,A,3,26,14,08,33,29,24,21,,,,,,0.86,0.49,0.70,4*07
$GPGSV,4,1,14,02,05,032,42,03,04,225,,04,64,252,44,07,15,293,42,1*68
$GPGSV,4,2,14,08,20,185,,09,41,302,47,16,85,025,46,18,07,071,38,1*63
$GPGSV,4,3,14,26,45,060,47,27,44,157,35,28,06,109,40,31,18,105,42,1*6F
$GPGSV,4,4,14,46,15,244,,48,18,240,,1*66
$GPGSV,4,1,14,02,05,032,,03,04,225,,04,64,252,38,07,15,293,27,6*61
$GPGSV,4,2,14,08,20,185,,09,41,302,39,16,85,025,,18,07,071,40,6*60
$GPGSV,4,3,14,26,45,060,45,27,44,157,27,28,06,109,33,31,18,105,38,6*60
$GPGSV,4,4,14,46,15,244,,48,18,240,,6*61
$GLGSV,3,1,10,65,15,195,,66,50,249,39,67,31,320,46,75,33,060,43,1*72
$GLGSV,3,2,10,76,64,329,49,77,26,276,32,84,13,019,34,85,31,080,41,1*7B
$GLGSV,3,3,10,86,16,127,40,1*40
$GLGSV,3,1,10,65,15,195,,66,50,249,29,67,31,320,34,75,33,060,40,3*77
$GLGSV,3,2,10,76,64,329,39,77,26,276,26,84,13,019,26,85,31,080,42,3*7B
$GLGSV,3,3,10,86,16,127,34,3*41
$GAGSV,3,1,11,03,39,304,46,05,59,217,35,09,19,168,23,10,00,131,,7*7B
$GAGSV,3,2,11,12,07,109,36,14,42,083,43,24,77,036,46,25,43,250,35,7*74
$GAGSV,3,3,11,26,03,016,31,31,27,060,44,33,13,060,43,7*43
$GAGSV,3,1,11,03,39,304,38,05,59,217,38,09,19,168,,10,00,131,,2*7B
$GAGSV,3,2,11,12,07,109,35,14,42,083,48,24,77,036,46,25,43,250,36,2*7A
$GAGSV,3,3,11,26,03,016,30,31,27,060,36,33,13,060,45,2*44
$GBGSV,3,1,09,08,07,004,31,13,03,014,32,14,32,290,45,21,18,205,27,1*77
$GBGSV,3,2,09,24,21,275,43,26,67,300,48,29,35,083,46,30,10,033,,1*70
$GBGSV,3,3,09,33,19,316,44,1*43
$GBGSV,3,1,09,08,07,004,36,13,03,014,26,14,32,290,45,21,18,205,,3*72
$GBGSV,3,2,09,24,21,275,,26,67,300,,29,35,083,,30,10,033,,3*7B
$GBGSV,3,3,09,33,19,316,,3*41
$GNGLL,4533.04027,N,07336.12351,W,141524.00,A,A*67
$GNRMC,141525.00,A,4533.04028,N,07336.12350,W,0.004,,140323,,,A,V*08
$GNVTG,,T,,M,0.004,N,0.007,K,A*3E
$GNGGA,141525.00,4533.04028,N,07336.12350,W,1,12,0.49,63.2,M,-32.6,M,,*4E
$GNGSA,A,3,28,27,26,18,31,04,07,09,02,16,,,0.86,0.49,0.70,1*0A
$GNGSA,A,3,66,76,84,86,75,77,85,67,,,,,0.86,0.49,0.70,2*0B
$GNGSA,A,3,05,33,12,31,25,24,03,,,,,,0.86,0.49,0.70,3*01
$GNGSA,A,3,26,14,08,33,29,24,21,,,,,,0.86,0.49,0.70,4*07
$GPGSV,4,1,14,02,05,032,42,03,04,225,,04,64,252,44,07,15,293,42,1*68
$GPGSV,4,2,14,08,20,185,,09,41,302,47,16,85,025,46,18,07,071,38,1*63
$GPGSV,4,3,14,26,45,060,47,27,44,157,36,28,06,109,40,31,18,105,42,1*6C
$GPGSV,4,4,14,46,15,244,,48,18,240,,1*66
$GPGSV,4,1,14,02,05,032,,03,04,225,,04,64,252,38,07,15,293,27,6*61
$GPGSV,4,2,14,08,20,185,,09,41,302,39,16,85,025,,18,07,071,40,6*60
$GPGSV,4,3,14,26,45,060,45,27,44,157,27,28,06,109,34,31,18,105,39,6*66
$GPGSV,4,4,14,46,15,244,,48,18,240,,6*61
$GLGSV,3,1,10,65,15,195,,66,50,249,39,67,31,320,45,75,33,060,44,1*76
$GLGSV,3,2,10,76,64,329,49,77,26,276,32,84,13,019,34,85,31,080,41,1*7B
$GLGSV,3,3,10,86,16,127,40,1*40
$GLGSV,3,1,10,65,15,195,,66,50,249,29,67,31,320,34,75,33,060,40,3*77
$GLGSV,3,2,10,76,64,329,39,77,26,276,26,84,13,019,27,85,31,080,42,3*7A
$GLGSV,3,3,10,86,16,127,35,3*40
$GAGSV,3,1,11,03,39,304,46,05,59,217,35,09,19,168,24,10,00,131,,7*7C
$GAGSV,3,2,11,12,07,109,36,14,42,083,42,24,77,036,46,25,43,250,35,7*75
$GAGSV,3,3,11,26,03,016,31,31,27,060,43,33,13,060,43,7*44
$GAGSV,3,1,11,03,39,304,38,05,59,217,38,09,19,168,,10,00,131,,2*7B
$GAGSV,3,2,11,12,07,109,34,14,42,083,49,24,77,036,46,25,43,250,36,2*7A
$GAGSV,3,3,11,26,03,016,30,31,27,060,36,33,13,060,45,2*44
$GBGSV,3,1,09,08,07,004,31,13,03,014,32,14,32,290,45,21,18,205,27,1*77
$GBGSV,3,2,09,24,21,275,44,26,67,300,48,29,35,083,46,30,10,033,,1*77
$GBGSV,3,3,09,33,19,316,44,1*43
$GBGSV,3,1,09,08,07,004,36,13,03,014,26,14,32,290,45,21,18,205,,3*72
$GBGSV,3,2,09,24,21,275,,26,67,300,,29,35,083,,30,10,033,,3*7B
$GBGSV,3,3,09,33,19,316,,3*41
$GNGLL,4533.04028,N,07336.12350,W,141525.00,A,A*68
$GNRMC,141526.00,A,4533.04028,N,07336.12350,W,0.004,,140323,,,A,V*0B
$GNVTG,,T,,M,0.004,N,0.007,K,A*3E
$GNGGA,141526.00,4533.04028,N,07336.12350,W,1,12,0.49,63.2,M,-32.6,M,,*4D
$GNGSA,A,3,28,27,26,18,31,04,07,09,02,16,,,0.86,0.49,0.70,1*0A
$GNGSA,A,3,66,76,84,86,75,77,85,67,,,,,0.86,0.49,0.70,2*0B
$GNGSA,A,3,05,33,12,31,25,24,03,,,,,,0.86,0.49,0.70,3*01
$GNGSA,A,3,26,14,08,33,29,24,21,,,,,,0.86,0.49,0.70,4*07
$GPGSV,4,1,14,02,05,032,42,03,04,225,,04,64,252,44,07,15,293,42,1*68
$GPGSV,4,2,14,08,20,185,,09,41,302,47,16,85,025,46,18,07,071,38,1*63
$GPGSV,4,3,14,26,45,060,46,27,44,157,35,28,06,109,39,31,18,105,42,1*60
$GPGSV,4,4,14,46,15,244,,48,18,240,,1*66
$GPGSV,4,1,14,02,05,032,,03,04,225,,04,64,252,38,07,15,293,27,6*61
$GPGSV,4,2,14,08,20,185,,09,41,302,39,16,85,025,,18,07,071,40,6*60
$GPGSV,4,3,14,26,45,060,44,27,44,157,27,28,06,109,34,31,18,105,39,6*67
$GPGSV,4,4,14,46,15,244,,48,18,240,,6*61
$GLGSV,3,1,10,65,15,195,,66,50,249,39,67,31,320,45,75,33,060,44,1*76
$GLGSV,3,2,10,76,64,329,49,77,26,276,32,84,13,019,34,85,31,080,41,1*7B
$GLGSV,3,3,10,86,16,127,40,1*40
$GLGSV,3,1,10,65,15,195,,66,50,249,29,67,31,320,34,75,33,060,40,3*77
$GLGSV,3,2,10,76,64,329,39,77,26,276,26,84,13,019,26,85,31,080,41,3*78
$GLGSV,3,3,10,86,16,127,35,3*40
$GAGSV,3,1,11,03,39,304,46,05,59,217,36,09,19,168,25,10,00,131,,7*7E
$GAGSV,3,2,11,12,07,109,36,14,42,083,42,24,77,036,46,25,43,250,35,7*75
$GAGSV,3,3,11,26,03,016,30,31,27,060,43,33,13,060,43,7*45
$GAGSV,3,1,11,03,39,304,38,05,59,217,38,09,19,168,,10,00,131,,2*7B
$GAGSV,3,2,11,12,07,109,34,14,42,083,49,24,77,036,46,25,43,250,36,2*7A
$GAGSV,3,3,11,26,03,016,30,31,27,060,36,33,13,060,45,2*44
$GBGSV,3,1,09,08,07,004,31,13,03,014,32,14,32,290,45,21,18,205,27,1*77
$GBGSV,3,2,09,24,21,275,43,26,67,300,48,29,35,083,46,30,10,033,,1*70
$GBGSV,3,3,09,33,19,316,44,1*43
$GBGSV,3,1,09,08,07,004,36,13,03,014,26,14,32,290,45,21,18,205,,3*72
$GBGSV,3,2,09,24,21,275,,26,67,300,,29,35,083,,30,10,033,,3*7B
$GBGSV,3,3,09,33,19,316,,3*41
$GNGLL,4533.04028,N,07336.12350,W,141526.00,A,A*6B
µbãD                           #   0            d!  "   #   $  &   B  C  E  Q   °  ¢   £  	§  ™   ´   ƒ  < !  "   "  " 2 "  " f! " 
" " 21 " ô2 " L $   $   $ 8 %   4 
 4 7! 4  " 4  A  A  A  A 
 A  A  A  A  A   Q Ñ R  R   R   R   S ŸÊµbã   @  ˇË#µb
  4µb ãô¬µb
‹ EXT CORE 1.00 (71b20c)        00190000  ROM BASE 0x118B2060           FWVER=TIM 2.01                PROTVER=29.00                 MOD=ZED-F9T                   GPS;GLO;GAL;BDS               SBAS;QZSS                     ˚ $GNRMC,141527.00,A,4533.04028,N,07336.12349,W,0.004,,140323,,,A,V*02
$GNVTG,,T,,M,0.004,N,0.008,K,A*31
$GNGGA,141527.00,4533.04028,N,07336.12349,W,1,12,0.49,63.2,M,-32.6,M,,*44
$GNGSA,A,3,28,27,26,18,31,04,07,09,02,16,,,0.86,0.49,0.70,1*0A
$GNGSA,A,3,66,76,84,86,75,77,85,67,,,,,0.86,0.49,0.70,2*0B
$GNGSA,A,3,05,33,12,31,25,24,03,,,,,,0.86,0.49,0.70,3*01
$GNGSA,A,3,26,14,08,33,29,24,21,,,,,,0.86,0.49,0.70,4*07
$GPGSV,4,1,14,02,05,032,42,03,04,225,,04,64,252,44,07,15,293,42,1*68
$GPGSV,4,2,14,08,20,185,,09,41,302,47,16,85,025,46,18,07,071,39,1*62
$GPGSV,4,3,14,26,45,060,47,27,44,157,35,28,06,109,39,31,18,105,42,1*61
$GPGSV,4,4,14,46,15,244,,48,18,240,,1*66
$GPGSV,4,1,14,02,05,032,,03,04,225,,04,64,252,38,07,15,293,27,6*61
$GPGSV,4,2,14,08,20,185,,09,41,302,39,16,85,025,,18,07,071,40,6*60
$GPGSV,4,3,14,26,45,060,45,27,44,157,27,28,06,109,34,31,18,105,39,6*66
$GPGSV,4,4,14,46,15,244,,48,18,240,,6*61
$GLGSV,3,1,10,65,15,195,,66,50,249,39,67,31,320,45,75,33,060,43,1*71
$GLGSV,3,2,10,76,64,329,49,77,26,276,32,84,13,019,34,85,31,080,41,1*7B
$GLGSV,3,3,10,86,16,127,41,1*41
$GLGSV,3,1,10,65,15,195,,66,50,249,29,67,31,320,34,75,33,060,40,3*77
$GLGSV,3,2,10,76,64,329,39,77,26,276,26,84,13,019,26,85,31,080,41,3*78
$GLGSV,3,3,10,86,16,127,35,3*40
$GAGSV,3,1,11,03,39,304,46,05,59,217,35,09,19,168,24,10,00,131,,7*7C
$GAGSV,3,2,11,12,07,109,36,14,42,083,42,24,77,036,46,25,43,250,34,7*74
$GAGSV,3,3,11,26,03,016,30,31,27,060,43,33,13,060,43,7*45
$GAGSV,3,1,11,03,39,304,39,05,59,217,38,09,19,168,,10,00,131,,2*7A
$GAGSV,3,2,11,12,07,109,34,14,42,083,49,24,77,036,46,25,43,250,36,2*7A
$GAGSV,3,3,11,26,03,016,30,31,27,060,37,33,13,060,45,2*45
$GBGSV,3,1,09,08,07,004,31,13,03,014,32,14,32,290,45,21,18,205,27,1*77
$GBGSV,3,2,09,24,21,275,44,26,67,300,49,29,35,083,46,30,10,033,,1*76
$GBGSV,3,3,09,33,19,316,45,1*42
$GBGSV,3,1,09,08,07,004,37,13,03,014,26,14,32,290,45,21,18,205,,3*73
$GBGSV,3,2,09,24,21,275,,26,67,300,,29,35,083,,30,10,033,,3*7B
$GBGSV,3,3,09,33,19,316,,3*41
$GNGLL,4533.04028,N,07336.12349,W,141527.00,A,A*62
$GNRMC,141528.00,A,4533.04028,N,07336.12349,W,0.005,,140323,,,A,V*0C
$GNVTG,,T,,M,0.005,N,0.008,K,A*30
$GNGGA,141528.00,4533.04028,N,07336.12349,W,1,12,0.49,63.2,M,-32.6,M,,*4B
$GNGSA,A,3,28,27,26,18,31,04,07,09,02,16,,,0.86,0.49,0.70,1*0A
$GNGSA,A,3,66,76,84,86,75,77,85,67,,,,,0.86,0.49,0.70,2*0B
$GNGSA,A,3,05,33,12,31,25,24,03,,,,,,0.86,0.49,0.70,3*01
$GNGSA,A,3,26,14,08,33,29,24,21,,,,,,0.86,0.49,0.70,4*07
$GPGSV,4,1,14,02,05,032,42,03,04,225,,04,64,252,45,07,15,293,42,1*69
$GPGSV,4,2,14,08,20,185,,09,41,302,47,16,85,025,46,18,07,071,39,1*62
$GPGSV,4,3,14,26,45,060,46,27,44,157,35,28,06,109,39,31,18,105,42,1*60
$GPGSV,4,4,14,46,15,244,,48,18,240,,1*66
$GPGSV,4,1,14,02,05,032,,03,04,225,,04,64,252,38,07,15,293,27,6*61
$GPGSV,4,2,14,08,20,185,,09,41,302,39,16,85,025,,18,07,071,40,6*60
$GPGSV,4,3,14,26,45,060,44,27,44,157,28,28,06,109,34,31,18,105,39,6*68
$GPGSV,4,4,14,46,15,244,,48,18,240,,6*61
$GLGSV,3,1,10,65,15,195,,66,50,249,39,67,31,320,46,75,33,060,44,1*75
$GLGSV,3,2,10,76,64,329,49,77,26,276,32,84,13,019,34,85,31,080,42,1*78
$GLGSV,3,3,10,86,16,127,41,1*41
$GLGSV,3,1,10,65,15,195,,66,50,249,29,67,31,320,34,75,33,060,40,3*77
$GLGSV,3,2,10,76,64,329,39,77,26,276,26,84,13,019,26,85,31,080,41,3*78
$GLGSV,3,3,10,86,16,127,35,3*40
$GAGSV,3,1,11,03,39,304,46,05,59,217,35,09,19,168,24,10,00,131,,7*7C
$GAGSV,3,2,11,12,07,109,36,14,42,083,42,24,77,036,46,25,43,250,34,7*74
$GAGSV,3,3,11,26,03,016,29,31,27,060,43,33,13,060,43,7*4D
$GAGSV,3,1,11,03,39,304,39,05,59,217,38,09,19,168,,10,00,131,,2*7A
$GAGSV,3,2,11,12,07,109,34,14,42,083,49,24,77,036,46,25,43,250,36,2*7A
$GAGSV,3,3,11,26,03,016,29,31,27,060,36,33,13,060,45,2*4C
$GBGSV,3,1,09,08,07,004,32,13,03,014,32,14,32,290,45,21,18,205,27,1*74
$GBGSV,3,2,09,24,21,275,44,26,67,300,49,29,35,083,46,30,10,033,,1*76
$GBGSV,3,3,09,33,19,316,44,1*43
$GBGSV,3,1,09,08,07,004,37,13,03,014,25,14,32,290,45,21,18,205,,3*70
$GBGSV,3,2,09,24,21,275,,26,67,300,,29,35,083,,30,10,033,,3*7B
$GBGSV,3,3,09,33,19,316,,3*41
$GNGLL,4533.04028,N,07336.12349,W,141528.00,A,A*6D
$GNRMC,141529.00,A,4533.04028,N,07336.12349,W,0.005,,140323,,,A,V*0D
$GNVTG,,T,,M,0.005,N,0.008,K,A*30
$GNGGA,141529.00,4533.04028,N,07336.12349,W,1,12,0.49,63.2,M,-32.6,M,,*4A
$GNGSA,A,3,28,27,26,18,31,04,07,09,02,16,,,0.86,0.49,0.70,1*0A
$GNGSA,A,3,66,76,84,86,75,77,85,67,,,,,0.86,0.49,0.70,2*0B
$GNGSA,A,3,05,33,12,31,25,24,03,,,,,,0.86,0.49,0.70,3*01
$GNGSA,A,3,26,14,08,33,29,24,21,,,,,,0.86,0.49,0.70,4*07
$GPGSV,4,1,14,02,05,032,43,03,04,225,,04,64,252,44,07,15,293,41,1*6A
$GPGSV,4,2,14,08,20,185,,09,41,302,47,16,85,025,46,18,07,071,39,1*62
$GPGSV,4,3,14,26,45,060,46,27,44,157,35,28,06,109,39,31,18,105,42,1*60
$GPGSV,4,4,14,46,15,244,,48,18,240,,1*66
$GPGSV,4,1,14,02,05,032,,03,04,225,,04,64,252,38,07,15,293,27,6*61
$GPGSV,4,2,14,08,20,185,,09,41,302,38,16,85,025,,18,07,071,39,6*6F
$GPGSV,4,3,14,26,45,060,44,27,44,157,28,28,06,109,34,31,18,105,39,6*68
$GPGSV,4,4,14,46,15,244,,48,18,240,,6*61
$GLGSV,3,1,10,65,15,195,20,66,50,249,39,67,31,320,46,75,33,060,44,1*77
$GLGSV,3,2,10,76,64,329,49,77,26,276,32,84,13,019,34,85,31,080,42,1*78
$GLGSV,3,3,10,86,16,127,40,1*40
$GLGSV,3,1,10,65,15,195,,66,50,249,29,67,31,320,34,75,33,060,40,3*77
$GLGSV,3,2,10,76,64,329,39,77,26,276,26,84,13,019,26,85,31,080,41,3*78
$GLGSV,3,3,10,86,16,127,35,3*40
$GAGSV,3,1,11,03,39,304,46,05,59,217,36,09,19,168,24,10,00,131,,7*7F
$GAGSV,3,2,11,12,07,109,36,14,42,083,42,24,77,036,46,25,43,250,34,7*74
$GAGSV,3,3,11,26,03,016,29,31,27,060,43,33,13,060,43,7*4D
$GAGSV,3,1,11,03,39,304,39,05,59,217,38,09,19,168,,10,00,131,,2*7A
$GAGSV,3,2,11,12,07,109,35,14,42,083,49,24,77,036,46,25,43,250,36,2*7B
$GAGSV,3,3,11,26,03,016,29,31,27,060,36,33,13,060,45,2*4C
$GBGSV,3,1,09,08,07,004,31,13,03,014,31,14,32,290,45,21,18,205,25,1*76
$GBGSV,3,2,09,24,21,275,43,26,67,300,49,29,35,083,46,30,10,033,,1*71
$GBGSV,3,3,09,33,19,316,45,1*42
$GBGSV,3,1,09,08,07,004,37,13,03,014,25,14,32,290,45,21,18,205,,3*70
$GBGSV,3,2,09,24,21,275,,26,67,300,,29,35,083,,30,10,033,,3*7B
$GBGSV,3,3,09,33,19,316,,3*41
$GNGLL,4533.04028,N,07336.12349,W,141529.00,A,A*6C
$GNRMC,141530.00,A,4533.04028,N,07336.12348,W,0.004,,140323,,,A,V*05
$GNVTG,,T,,M,0.004,N,0.008,K,A*31
$GNGGA,141530.00,4533.04028,N,07336.12348,W,1,12,0.49,63.2,M,-32.6,M,,*43
$GNGSA,A,3,28,27,26,18,31,04,07,09,02,16,,,0.86,0.49,0.70,1*0A
$GNGSA,A,3,66,76,84,86,75,77,85,67,,,,,0.86,0.49,0.70,2*0B
$GNGSA,A,3,05,33,12,31,25,24,03,,,,,,0.86,0.49,0.70,3*01
$GNGSA,A,3,26,14,08,33,29,24,21,,,,,,0.86,0.49,0.70,4*07
$GPGSV,4,1,14,02,05,032,43,03,04,225,,04,64,252,44,07,15,293,41,1*6A
$GPGSV,4,2,14,08,20,185,,09,41,302,47,16,85,025,46,18,07,071,39,1*62
$GPGSV,4,3,14,26,45,060,46,27,44,157,35,28,06,109,39,31,18,105,42,1*60
$GPGSV,4,4,14,46,15,244,,48,18,240,,1*66
$GPGSV,4,1,14,02,05,032,,03,04,225,,04,64,252,38,07,15,293,26,6*60
$GPGSV,4,2,14,08,20,185,,09,41,302,39,16,85,025,,18,07,071,39,6*6E
$GPGSV,4,3,14,26,45,060,44,27,44,157,28,28,06,109,34,31,18,105,39,6*68
$GPGSV,4,4,14,46,15,244,,48,18,240,,6*61
$GLGSV,3,1,10,65,15,195,18,66,50,249,39,67,31,320,46,75,33,060,44,1*7C
$GLGSV,3,2,10,76,64,329,49,77,26,276,32,84,12,018,34,85,31,080,41,1*7B
$GLGSV,3,3,10,86,16,127,40,1*40
$GLGSV,3,1,10,65,15,195,,66,50,249,29,67,31,320,34,75,33,060,40,3*77
$GLGSV,3,2,10,76,64,329,39,77,26,276,26,84,12,018,26,85,31,080,41,3*78
$GLGSV,3,3,10,86,16,127,35,3*40
$GAGSV,3,1,11,03,39,304,46,05,59,217,36,09,19,168,24,10,00,131,,7*7F
$GAGSV,3,2,11,12,07,109,36,14,42,083,42,24,77,036,46,25,43,250,34,7*74
$GAGSV,3,3,11,26,03,016,29,31,27,060,43,33,13,060,44,7*4A
$GAGSV,3,1,11,03,39,304,39,05,59,217,38,09,19,168,,10,00,131,,2*7A
$GAGSV,3,2,11,12,07,109,34,14,42,083,49,24,77,036,46,25,43,250,36,2*7A
$GAGSV,3,3,11,26,03,016,29,31,27,060,36,33,13,060,45,2*4C
$GBGSV,3,1,09,08,07,004,31,13,03,014,31,14,32,290,45,21,18,205,26,1*75
$GBGSV,3,2,09,24,21,275,43,26,67,300,49,29,35,083,46,30,10,033,,1*71
$GBGSV,3,3,09,33,19,316,44,1*43
$GBGSV,3,1,09,08,07,004,37,13,03,014,26,14,32,290,45,21,18,205,,3*73
$GBGSV,3,2,09,24,21,275,,26,67,300,,29,35,083,,30,10,033,,3*7B
$GBGSV,3,3,09,33,19,316,,3*41
$GNGLL,4533.04028,N,07336.12348,W,141530.00,A,A*65
µbãD @ S   S   S   d 2 d   ë   ë   ë  	 ë  
 ë   ë   ë   ë   ë   ë   ë   ë   ë   ë   ë   ë   ë   ë   ë   ë  $ ë  % ë  & ë  ' ë  ( ë  ) ë  * ë  + ë  , ë  - ë  8 ë  9 ë  : ë  ; ë  < ë  = ë  > ë  ? ë  @ ë  A ë  B ë  C ë  D ë  E ë  F ë  G ë  H ë  I ë  J ë  K ë  L ë  M ë  N ë  O ë  P ë  Q ë  R ë  S ë  T ë  í÷µbã   Ä  ˇ(£µb ãô¬µb
‹ EXT CORE 1.00 (71b20c)        00190000  ROM BASE 0x118B2060           FWVER=TIM 2.01                PROTVER=29.00                 MOD=ZED-F9T                   GPS;GLO;GAL;BDS               SBAS;QZSS                     ˚ $GNRMC,141531.00,A,4533.04028,N,07336.12348,W,0.004,,140323,,,A,V*04
$GNVTG,,T,,M,0.004,N,0.008,K,A*31
$GNGGA,141531.00,4533.04028,N,07336.12348,W,1,12,0.49,63.3,M,-32.6,M,,*43
$GNGSA,A,3,28,27,26,18,31,04,07,09,02,16,,,0.86,0.49,0.70,1*0A
$GNGSA,A,3,66,76,84,86,75,77,85,67,,,,,0.86,0.49,0.70,2*0B
$GNGSA,A,3,05,33,12,31,25,24,03,,,,,,0.86,0.49,0.70,3*01
$GNGSA,A,3,26,14,08,33,29,24,21,,,,,,0.86,0.49,0.70,4*07
