$GNRMC,141504.00,A,4533.04027,N,07336.12353,W,0.004,,140323,,,A,V*07
$GNVTG,,T,,M,0.004,N,0.007,K,A*3E
$GNGGA,141504.00,4533.04027,N,07336.12353,W,1,12,0.49,62.9,M,-32.6,M,,*4B
$GNGSA,A,3,28,27,26,18,31,04,07,09,02,16,,,0.86,0.49,0.70,1*0A
$GNGSA,A,3,66,76,84,86,75,77,85,67,,,,,0.86,0.49,0.70,2*0B
$GNGSA,A,3,05,33,12,31,25,24,03,,,,,,0.86,0.49,0.70,3*01
$GNGSA,A,3,26,14,08,33,29,24,21,,,,,,0.86,0.49,0.70,4*07
$GPGSV,4,1,14,02,05,032,42,03,04,225,,04,64,252,43,07,15,293,43,1*6E
$GPGSV,4,2,14,08,20,185,,09,41,302,46,16,85,025,46,18,07,071,37,1*6D
$GPGSV,4,3,14,26,45,060,47,27,44,157,37,28,06,109,40,31,18,105,42,1*6D
$GPGSV,4,4,14,46,15,244,,48,18,240,,1*66
$GPGSV,4,1,14,02,05,032,,03,04,225,,04,64,252,38,07,15,293,29,6*6F
$GPGSV,4,2,14,08,20,185,,09,41,302,38,16,85,025,,18,07,071,41,6*60
$GPGSV,4,3,14,26,45,060,45,27,44,157,27,28,06,109,36,31,18,105,39,6*64
$GPGSV,4,4,14,46,15,244,,48,18,240,,6*61
$GLGSV,3,1,10,65,16,195,,66,50,251,39,67,31,321,46,75,34,060,44,1*79
$GLGSV,3,2,10,76,64,326,49,77,25,275,32,84,13,019,35,85,31,080,40,1*74
$GLGSV,3,3,10,86,16,127,39,1*4E
$GLGSV,3,1,10,65,16,195,,66,50,251,31,67,31,321,35,75,34,060,42,3*71
$GLGSV,3,2,10,76,64,326,39,77,25,275,25,84,13,019,26,85,31,080,41,3*74
$GLGSV,3,3,10,86,16,127,35,3*40
$GAGSV,3,1,11,03,39,304,45,05,59,217,35,09,19,168,23,10,00,131,,7*78
$GAGSV,3,2,11,12,07,110,36,14,42,083,42,24,77,036,46,25,43,250,34,7*7C
$GAGSV,3,3,11,26,03,016,29,31,27,060,44,33,13,060,43,7*4A
$GAGSV,3,1,11,03,39,304,39,05,59,217,38,09,19,168,,10,00,131,,2*7A
$GAGSV,3,2,11,12,07,110,34,14,42,083,48,24,77,036,46,25,43,250,36,2*73
$GAGSV,3,3,11,26,03,016,30,31,27,060,36,33,13,060,45,2*44
$GBGSV,3,1,10,08,07,004,30,13,03,014,31,14,32,290,45,21,18,205,26,1*7C
$GBGSV,3,2,10,24,21,275,43,26,67,300,49,29,34,084,47,30,10,033,,1*7E
$GBGSV,3,3,10,33,19,316,44,36,00,087,,1*71
$GBGSV,3,1,10,08,07,004,36,13,03,014,25,14,32,290,45,21,18,205,,3*79
$GBGSV,3,2,10,24,21,275,,26,67,300,,29,34,084,,30,10,033,,3*75
$GBGSV,3,3,10,33,19,316,,36,00,087,,3*73
$GNGLL,4533.04027,N,07336.12353,W,141504.00,A,A*67
$GNRMC,141505.00,A,4533.04027,N,07336.12353,W,0.004,,140323,,,A,V*06
$GNVTG,,T,,M,0.004,N,0.007,K,A*3E
$GNGGA,141505.00,4533.04027,N,07336.12353,W,1,12,0.49,62.9,M,-32.6,M,,*4A
$GNGSA,A,3,28,27,26,18,31,04,07,09,02,16,,,0.86,0.49,0.70,1*0A
$GNGSA,A,3,66,76,84,86,75,77,85,67,,,,,0.86,0.49,0.70,2*0B
$GNGSA,A,3,05,33,12,31,25,24,03,,,,,,0.86,0.49,0.70,3*01
$GNGSA,A,3,26,14,08,33,29,24,21,,,,,,0.86,0.49,0.70,4*07
$GPGSV,4,1,14,02,05,032,42,03,04,225,,04,64,252,43,07,15,293,43,1*6E
$GPGSV,4,2,14,08,20,185,,09,41,302,46,16,85,025,46,18,07,071,36,1*6C
$GPGSV,4,3,14,26,45,060,47,27,44,157,37,28,06,109,40,31,18,105,42,1*6D
$GPGSV,4,4,14,46,15,244,,48,18,240,,1*66
$GPGSV,4,1,14,02,05,032,,03,04,225,,04,64,252,38,07,15,293,29,6*6F
$GPGSV,4,2,14,08,20,185,,09,41,302,38,16,85,025,,18,07,071,41,6*60
$GPGSV,4,3,14,26,45,060,45,27,44,157,27,28,06,109,36,31,18,105,39,6*64
$GPGSV,4,4,14,46,15,244,,48,18,240,,6*61
$GLGSV,3,1,10,65,16,195,,66,50,251,39,67,31,321,46,75,34,060,44,1*79
$GLGSV,3,2,10,76,64,326,49,77,25,275,32,84,13,019,35,85,31,080,40,1*74
$GLGSV,3,3,10,86,16,127,39,1*4E
$GLGSV,3,1,10,65,16,195,,66,50,251,30,67,31,321,35,75,34,060,41,3*73
$GLGSV,3,2,10,76,64,326,39,77,25,275,25,84,13,019,26,85,31,080,41,3*74
$GLGSV,3,3,10,86,16,127,35,3*40
$GAGSV,3,1,11,03,39,304,46,05,59,217,35,09,19,168,22,10,00,131,,7*7A
$GAGSV,3,2,11,12,07,110,36,14,42,083,43,24,77,036,46,25,43,250,34,7*7D
$GAGSV,3,3,11,26,03,016,29,31,27,060,43,33,13,060,43,7*4D
$GAGSV,3,1,11,03,39,304,38,05,59,217,38,09,19,168,,10,00,131,,2*7B
$GAGSV,3,2,11,12,07,110,34,14,42,083,48,24,77,036,46,25,43,250,36,2*73
$GAGSV,3,3,11,26,03,016,30,31,27,060,36,33,13,060,45,2*44
$GBGSV,3,1,10,08,07,004,30,13,03,014,31,14,32,290,45,21,18,205,27,1*7D
$GBGSV,3,2,10,24,21,275,43,26,67,300,49,29,34,084,47,30,10,033,,1*7E
$GBGSV,3,3,10,33,19,316,45,36,00,087,,1*70
$GBGSV,3,1,10,08,07,004,37,13,03,014,25,14,32,290,45,21,18,205,,3*78
$GBGSV,3,2,10,24,21,275,,26,67,300,,29,34,084,,30,10,033,,3*75
$GBGSV,3,3,10,33,19,316,,36,00,087,,3*73
$GNGLL,4533.04027,N,07336.12353,W,141505.00,A,A*66
$GNRMC,141506.00,A,4533.04027,N,07336.12352,W,0.004,,140323,,,A,V*04
$GNVTG,,T,,M,0.004,N,0.007,K,A*3E
$GNGGA,141506.00,4533.04027,N,07336.12352,W,1,12,0.49,62.9,M,-32.6,M,,*48
$GNGSA,A,3,28,27,26,18,31,04,07,09,02,16,,,0.86,0.49,0.70,1*0A
$GNGSA,A,3,66,76,84,86,75,77,85,67,,,,,0.86,0.49,0.70,2*0B
$GNGSA,A,3,05,33,12,31,25,24,03,,,,,,0.86,0.49,0.70,3*01
$GNGSA,A,3,26,14,08,33,29,24,21,,,,,,0.86,0.49,0.70,4*07
$GPGSV,4,1,14,02,05,032,42,03,04,225,,04,64,252,44,07,15,293,43,1*69
$GPGSV,4,2,14,08,20,185,,09,41,302,46,16,85,025,46,18,07,071,36,1*6C
$GPGSV,4,3,14,26,45,060,47,27,44,157,36,28,06,109,40,31,18,105,42,1*6C
$GPGSV,4,4,14,46,15,244,,48,18,240,,1*66
$GPGSV,4,1,14,02,05,032,,03,04,225,,04,64,252,38,07,15,293,29,6*6F
$GPGSV,4,2,14,08,20,185,,09,41,302,38,16,85,025,,18,07,071,41,6*60
$GPGSV,4,3,14,26,45,060,45,27,44,157,27,28,06,109,35,31,18,105,39,6*67
$GPGSV,4,4,14,46,15,244,,48,18,240,,6*61
$GLGSV,3,1,10,65,16,195,,66,50,251,39,67,31,321,46,75,34,060,44,1*79
$GLGSV,3,2,10,76,64,326,49,77,25,275,32,84,13,019,35,85,31,080,39,1*7A
$GLGSV,3,3,10,86,16,127,39,1*4E
$GLGSV,3,1,10,65,16,195,,66,50,251,30,67,31,321,35,75,34,060,42,3*70
$GLGSV,3,2,10,76,64,326,39,77,25,275,25,84,13,019,25,85,31,080,41,3*77
$GLGSV,3,3,10,86,16,127,35,3*40
$GAGSV,3,1,11,03,39,304,46,05,59,217,35,09,19,168,22,10,00,131,,7*7A
$GAGSV,3,2,11,12,07,110,36,14,42,083,43,24,77,036,46,25,43,250,35,7*7C
$GAGSV,3,3,11,26,03,016,30,31,27,060,43,33,13,060,43,7*45
$GAGSV,3,1,11,03,39,304,39,05,59,217,38,09,19,168,,10,00,131,,2*7A
$GAGSV,3,2,11,12,07,110,34,14,42,083,48,24,77,036,46,25,43,250,36,2*73
$GAGSV,3,3,11,26,03,016,31,31,27,060,36,33,13,060,45,2*45
$GBGSV,3,1,10,08,07,004,30,13,03,014,31,14,32,290,45,21,18,205,27,1*7D
$GBGSV,3,2,10,24,21,275,43,26,67,300,48,29,34,084,47,30,10,033,,1*7F
$GBGSV,3,3,10,33,19,316,45,36,00,087,,1*70
$GBGSV,3,1,10,08,07,004,36,13,03,014,25,14,32,290,45,21,18,205,,3*79
$GBGSV,3,2,10,24,21,275,,26,67,300,,29,34,084,,30,10,033,,3*75
$GBGSV,3,3,10,33,19,316,,36,00,087,,3*73
$GNGLL,4533.04027,N,07336.12352,W,141506.00,A,A*64
$GNRMC,141507.00,A,4533.04027,N,07336.12352,W,0.004,,140323,,,A,V*05
$GNVTG,,T,,M,0.004,N,0.007,K,A*3E
$GNGGA,141507.00,4533.04027,N,07336.12352,W,1,12,0.49,62.9,M,-32.6,M,,*49
$GNGSA,A,3,28,27,26,18,31,04,07,09,02,16,,,0.86,0.49,0.70,1*0A
$GNGSA,A,3,66,76,84,86,75,77,85,67,,,,,0.86,0.49,0.70,2*0B
$GNGSA,A,3,05,33,12,31,25,24,03,,,,,,0.86,0.49,0.70,3*01
$GNGSA,A,3,26,14,08,33,29,24,21,,,,,,0.86,0.49,0.70,4*07
$GPGSV,4,1,14,02,05,032,42,03,04,225,,04,64,252,44,07,15,293,43,1*69
$GPGSV,4,2,14,08,20,185,,09,41,302,47,16,85,025,46,18,07,071,36,1*6D
$GPGSV,4,3,14,26,45,060,46,27,44,157,36,28,06,109,40,31,18,105,42,1*6D
$GPGSV,4,4,14,46,15,244,,48,18,240,,1*66
$GPGSV,4,1,14,02,05,032,,03,04,225,,04,64,252,38,07,15,293,29,6*6F
$GPGSV,4,2,14,08,20,185,,09,41,302,38,16,85,025,,18,07,071,41,6*60
$GPGSV,4,3,14,26,45,060,45,27,44,157,26,28,06,109,35,31,18,105,39,6*66
$GPGSV,4,4,14,46,15,244,,48,18,240,,6*61
$GLGSV,3,1,10,65,16,195,,66,50,251,39,67,31,321,46,75,34,060,44,1*79
$GLGSV,3,2,10,76,64,326,49,77,25,275,32,84,13,019,35,85,31,080,39,1*7A
$GLGSV,3,3,10,86,16,127,39,1*4E
$GLGSV,3,1,10,65,16,195,,66,50,251,30,67,31,321,34,75,34,060,42,3*71
$GLGSV,3,2,10,76,64,326,39,77,25,275,26,84,13,019,26,85,31,080,41,3*77
$GLGSV,3,3,10,86,16,127,34,3*41
$GAGSV,3,1,11,03,39,304,46,05,59,217,34,09,19,168,23,10,00,131,,7*7A
$GAGSV,3,2,11,12,07,110,36,14,42,083,43,24,77,036,46,25,43,250,35,7*7C
$GAGSV,3,3,11,26,03,016,29,31,27,060,43,33,13,060,43,7*4D
$GAGSV,3,1,11,03,39,304,38,05,59,217,38,09,19,168,,10,00,131,,2*7B
$GAGSV,3,2,11,12,07,110,34,14,42,083,48,24,77,036,46,25,43,250,36,2*73
$GAGSV,3,3,11,26,03,016,31,31,27,060,37,33,13,060,45,2*44
$GBGSV,3,1,10,08,07,004,30,13,03,014,31,14,32,290,45,21,18,205,27,1*7D
$GBGSV,3,2,10,24,21,275,43,26,67,300,48,29,35,083,47,30,10,033,,1*79
$GBGSV,3,3,10,33,19,316,45,36,00,087,,1*70
$GBGSV,3,1,10,08,07,004,37,13,03,014,24,14,32,290,45,21,18,205,,3*79
$GBGSV,3,2,10,24,21,275,,26,67,300,,29,35,083,,30,10,033,,3*73
$GBGSV,3,3,10,33,19,316,,36,00,087,,3*73
$GNGLL,4533.04027,N,07336.12352,W,141507.00,A,A*65
$GNRMC,141508.00,A,4533.04026,N,07336.12352,W,0.004,,140323,,,A,V*0B
$GNVTG,,T,,M,0.004,N,0.007,K,A*3E
$GNGGA,141508.00,4533.04026,N,07336.12352,W,1,12,0.49,63.0,M,-32.6,M,,*4F
$GNGSA,A,3,28,27,26,18,31,04,07,09,02,16,,,0.86,0.49,0.70,1*0A
$GNGSA,A,3,66,76,84,86,75,77,85,67,,,,,0.86,0.49,0.70,2*0B
$GNGSA,A,3,05,33,12,31,25,24,03,,,,,,0.86,0.49,0.70,3*01
$GNGSA,A,3,26,14,08,33,29,24,21,,,,,,0.86,0.49,0.70,4*07
$GPGSV,4,1,14,02,05,032,42,03,04,225,,04,64,252,44,07,15,293,43,1*69
$GPGSV,4,2,14,08,20,185,,09,41,302,47,16,85,025,46,18,07,071,36,1*6D
$GPGSV,4,3,14,26,45,060,47,27,44,157,37,28,06,109,40,31,18,105,42,1*6D
$GPGSV,4,4,14,46,15,244,,48,18,240,,1*66
$GPGSV,4,1,14,02,05,032,,03,04,225,,04,64,252,38,07,15,293,29,6*6F
$GPGSV,4,2,14,08,20,185,,09,41,302,38,16,85,025,,18,07,071,41,6*60
$GPGSV,4,3,14,26,45,060,45,27,44,157,26,28,06,109,35,31,18,105,39,6*66
$GPGSV,4,4,14,46,15,244,,48,18,240,,6*61
$GLGSV,3,1,10,65,16,195,,66,50,251,39,67,31,321,46,75,34,060,44,1*79
$GLGSV,3,2,10,76,64,326,49,77,25,275,32,84,13,019,35,85,31,080,40,1*74
$GLGSV,3,3,10,86,16,127,40,1*40
$GLGSV,3,1,10,65,16,195,,66,50,251,29,67,31,321,35,75,34,060,42,3*78
$GLGSV,3,2,10,76,64,326,39,77,25,275,26,84,13,019,26,85,31,080,42,3*74
$GLGSV,3,3,10,86,16,127,34,3*41
$GAGSV,3,1,11,03,39,304,46,05,59,217,34,09,19,168,24,10,00,131,,7*7D
$GAGSV,3,2,11,12,07,110,36,14,42,083,43,24,77,036,46,25,43,250,35,7*7C
$GAGSV,3,3,11,26,03,016,30,31,27,060,43,33,13,060,43,7*45
$GAGSV,3,1,11,03,39,304,39,05,59,217,38,09,19,168,,10,00,131,,2*7A
$GAGSV,3,2,11,12,07,110,34,14,42,083,48,24,77,036,46,25,43,250,36,2*73
$GAGSV,3,3,11,26,03,016,31,31,27,060,37,33,13,060,45,2*44
$GBGSV,3,1,10,08,07,004,30,13,03,014,31,14,32,290,45,21,18,205,26,1*7C
$GBGSV,3,2,10,24,21,275,43,26,67,300,48,29,35,083,47,30,10,033,,1*79
$GBGSV,3,3,10,33,19,316,44,36,00,087,,1*71
$GBGSV,3,1,10,08,07,004,37,13,03,014,25,14,32,290,45,21,18,205,,3*78
$GBGSV,3,2,10,24,21,275,,26,67,300,,29,35,083,,30,10,033,,3*73
$GBGSV,3,3,10,33,19,316,,36,00,087,,3*73
$GNGLL,4533.04026,N,07336.12352,W,141508.00,A,A*6B
